"","Relevé.number","Temp","Precip","UTM10X10","UTM1X1","SIVIMID","JuiceID","OriginalElevation","Locality","Country","ECOREG_WWF","DUNES_BOHN","Plant.Cover","Aspect","Slope","Area","SintaxonID","Sintaxon","Authors","Year","Title","Publication","EUNIS2020","Type","DEG_LON","DEG_LAT","Accuracy","Elevation"
"1",207008,140,12408,"30TUP80","","Q-P07008",27673,NA,"El Rosal","ES","ATL_COAST","N_DUNES",NA,"",NA,4,"5825","Comunidad de Elymus pycnanthus (Agropyron pycnanthum) y Atriplex hastata","Aedo Perez, Carlos","1985","Estudio de la flora y vegetación de la comarca de San Vicente de la Barquera (Cantabria)."," Memoria de Licenciatura. Universidad de Oviedo. 217","V","No forest",-4.419290768,43.36986165,"4 - UTM10x10 + Centroid",59
"2",207010,140,12408,"30TUP80","","Q-P07010",27674,NA,"El Rosal","ES","ATL_COAST","N_DUNES",NA,"",NA,2,"5825","Comunidad de Elymus pycnanthus (Agropyron pycnanthum) y Atriplex hastata","Aedo Perez, Carlos","1985","Estudio de la flora y vegetación de la comarca de San Vicente de la Barquera (Cantabria)."," Memoria de Licenciatura. Universidad de Oviedo. 217","V32","No forest",-4.419290768,43.36986165,"4 - UTM10x10 + Centroid",59
"3",207042,140,12408,"30TUP80","","Q-P07042",27659,NA,"El Rosal","ES","ATL_COAST","Y_DUNES",NA,"",NA,15,"753","Sisymbrio officinalis-Hordeetum murini","Aedo Perez, Carlos","1985","Estudio de la flora y vegetación de la comarca de San Vicente de la Barquera (Cantabria)."," Memoria de Licenciatura. Universidad de Oviedo. 217","V32","No forest",-4.419290768,43.36986165,"4 - UTM10x10 + Centroid",59
"4",207050,140,12408,"30TUP80","","Q-P07050",27636,NA,"La Barquera","ES","ATL_COAST","N_DUNES",NA,"",NA,1,"5828","Comunidad de Spergularia boccomii y Sagina apetala","Aedo Perez, Carlos","1985","Estudio de la flora y vegetación de la comarca de San Vicente de la Barquera (Cantabria)."," Memoria de Licenciatura. Universidad de Oviedo. 217","V32","No forest",-4.419290768,43.36986165,"4 - UTM10x10 + Centroid",59
"5",207051,140,12408,"30TUP80","","Q-P07051",27637,NA,"El Rosal","ES","ATL_COAST","N_DUNES",NA,"",NA,2,"5828","Comunidad de Spergularia boccomii y Sagina apetala","Aedo Perez, Carlos","1985","Estudio de la flora y vegetación de la comarca de San Vicente de la Barquera (Cantabria)."," Memoria de Licenciatura. Universidad de Oviedo. 217","V32","No forest",-4.419290768,43.36986165,"4 - UTM10x10 + Centroid",59
"6",207055,140,12408,"30TUP80","","Q-P07055",27638,NA,"El Rosal","ES","ATL_COAST","Y_DUNES",NA,"",NA,2,"5830","Comunidad de Desmazeria marina y Phleum arenarium","Aedo Perez, Carlos","1985","Estudio de la flora y vegetación de la comarca de San Vicente de la Barquera (Cantabria)."," Memoria de Licenciatura. Universidad de Oviedo. 217","V32","No forest",-4.419290768,43.36986165,"4 - UTM10x10 + Centroid",59
"7",207071,140,12408,"30TUP80","","Q-P07071",27645,NA,"La Revilla","ES","ATL_COAST","N_DUNES",NA,"",NA,4,"L008","Glycerio-Sparganion","Aedo Perez, Carlos","1985","Estudio de la flora y vegetación de la comarca de San Vicente de la Barquera (Cantabria)."," Memoria de Licenciatura. Universidad de Oviedo. 217","V39","No forest",-4.419290768,43.36986165,"4 - UTM10x10 + Centroid",59
"8",207105,140,12408,"30TUP80","","Q-P07105",27843,NA,"La Barquera","ES","ATL_COAST","N_DUNES",NA,"",NA,10,"5833","Comunidad de Juncus conglomeratus y J.effusus","Aedo Perez, Carlos","1985","Estudio de la flora y vegetación de la comarca de San Vicente de la Barquera (Cantabria)."," Memoria de Licenciatura. Universidad de Oviedo. 217","R36","No forest",-4.419290768,43.36986165,"4 - UTM10x10 + Centroid",59
"9",207114,142,12380,"30TUP90","","Q-P07114",27845,NA,"Jerra","ES","ATL_COAST","N_DUNES",NA,"",NA,1,"236","Lolio-Plantaginetum majoris","Aedo Perez, Carlos","1985","Estudio de la flora y vegetación de la comarca de San Vicente de la Barquera (Cantabria)."," Memoria de Licenciatura. Universidad de Oviedo. 217","R36","No forest",-4.296413727,43.37119587,"4 - UTM10x10 + Centroid",58
"10",207115,142,12380,"30TUP90","","Q-P07115",27846,NA,"Oyambre","ES","ATL_COAST","N_DUNES",NA,"",NA,1,"236","Lolio-Plantaginetum majoris","Aedo Perez, Carlos","1985","Estudio de la flora y vegetación de la comarca de San Vicente de la Barquera (Cantabria)."," Memoria de Licenciatura. Universidad de Oviedo. 217","R36","No forest",-4.296413727,43.37119587,"4 - UTM10x10 + Centroid",58
"11",207116,140,12408,"30TUP80","","Q-P07116",27847,NA,"Abaño","ES","ATL_COAST","N_DUNES",NA,"",NA,4,"236","Lolio-Plantaginetum majoris","Aedo Perez, Carlos","1985","Estudio de la flora y vegetación de la comarca de San Vicente de la Barquera (Cantabria)."," Memoria de Licenciatura. Universidad de Oviedo. 217","R36","No forest",-4.419290768,43.36986165,"4 - UTM10x10 + Centroid",59
"12",207119,140,12408,"30TUP80","","Q-P07119",27849,NA,"El Rosal","ES","ATL_COAST","N_DUNES",NA,"",NA,2,"236","Lolio-Plantaginetum majoris","Aedo Perez, Carlos","1985","Estudio de la flora y vegetación de la comarca de San Vicente de la Barquera (Cantabria)."," Memoria de Licenciatura. Universidad de Oviedo. 217","R36","No forest",-4.419290768,43.36986165,"4 - UTM10x10 + Centroid",59
"13",207124,140,12408,"30TUP80","","Q-P07124",27853,NA,"Abaño","ES","ATL_COAST","N_DUNES",NA,"",NA,30,"5835","Comunidad de Juncus inflexus y Rumex crispus","Aedo Perez, Carlos","1985","Estudio de la flora y vegetación de la comarca de San Vicente de la Barquera (Cantabria)."," Memoria de Licenciatura. Universidad de Oviedo. 217","R36","No forest",-4.419290768,43.36986165,"4 - UTM10x10 + Centroid",59
"14",207125,140,12408,"30TUP80","","Q-P07125",27854,NA,"La Acebosa","ES","ATL_COAST","N_DUNES",NA,"",NA,20,"5835","Comunidad de Juncus inflexus y Rumex crispus","Aedo Perez, Carlos","1985","Estudio de la flora y vegetación de la comarca de San Vicente de la Barquera (Cantabria)."," Memoria de Licenciatura. Universidad de Oviedo. 217","R36","No forest",-4.419290768,43.36986165,"4 - UTM10x10 + Centroid",59
"15",207768,137,14078,"30TVP41","","Q-P07768",27615,NA,"Carretera de Galizano","ES","ATL_COAST","N_DUNES",NA,"",NA,10,"0","Associació-Desconeguda","Guinea López, Emilio","1953","Geografia botánica de Santander."," Publicaciones diputación provincial de Santander. 412","R36","No forest",-3.665204511,43.46129774,"4 - UTM10x10 + Centroid",43
"16",207769,137,14078,"30TVP41","","Q-P07769",27616,NA,"Carretera de Galizano","ES","ATL_COAST","N_DUNES",NA,"",NA,10,"0","Associació-Desconeguda","Guinea López, Emilio","1953","Geografia botánica de Santander."," Publicaciones diputación provincial de Santander. 412","R36","No forest",-3.665204511,43.46129774,"4 - UTM10x10 + Centroid",43
"17",207770,137,14078,"30TVP41","","Q-P07770",27617,NA,"Carretera de Galizano","ES","ATL_COAST","N_DUNES",NA,"",NA,10,"0","Associació-Desconeguda","Guinea López, Emilio","1953","Geografia botánica de Santander."," Publicaciones diputación provincial de Santander. 412","R36","No forest",-3.665204511,43.46129774,"4 - UTM10x10 + Centroid",43
"18",207771,137,14078,"30TVP41","","Q-P07771",27618,NA,"Carretera de Galizano","ES","ATL_COAST","N_DUNES",NA,"",NA,10,"0","Associació-Desconeguda","Guinea López, Emilio","1953","Geografia botánica de Santander."," Publicaciones diputación provincial de Santander. 412","R36","No forest",-3.665204511,43.46129774,"4 - UTM10x10 + Centroid",43
"19",207772,137,14078,"30TVP41","","Q-P07772",27619,NA,"Carretera de Galizano","ES","ATL_COAST","N_DUNES",NA,"",NA,10,"0","Associació-Desconeguda","Guinea López, Emilio","1953","Geografia botánica de Santander."," Publicaciones diputación provincial de Santander. 412","R36","No forest",-3.665204511,43.46129774,"4 - UTM10x10 + Centroid",43
"20",207777,138,14233,"30TVP30","","Q-P07777",27798,NA,"Granja Escuela de Heras","ES","ATL_COAST","N_DUNES",NA,"",NA,25,"0","Associació-Desconeguda","Guinea López, Emilio","1953","Geografia botánica de Santander."," Publicaciones diputación provincial de Santander. 412","R55","No forest",-3.800447036,43.39010631,"4 - UTM10x10 + Centroid",36
"21",207778,138,14233,"30TVP30","","Q-P07778",27799,NA,"Granja Escuela de Heras","ES","ATL_COAST","N_DUNES",NA,"",NA,25,"0","Associació-Desconeguda","Guinea López, Emilio","1953","Geografia botánica de Santander."," Publicaciones diputación provincial de Santander. 412","R55","No forest",-3.800447036,43.39010631,"4 - UTM10x10 + Centroid",36
"22",207779,138,14233,"30TVP30","","Q-P07779",27800,NA,"Granja Escuela de Heras","ES","ATL_COAST","N_DUNES",NA,"",NA,25,"0","Associació-Desconeguda","Guinea López, Emilio","1953","Geografia botánica de Santander."," Publicaciones diputación provincial de Santander. 412","R55","No forest",-3.800447036,43.39010631,"4 - UTM10x10 + Centroid",36
"23",207780,138,14233,"30TVP30","","Q-P07780",27801,NA,"Granja Escuela de Heras","ES","ATL_COAST","N_DUNES",NA,"",NA,25,"0","Associació-Desconeguda","Guinea López, Emilio","1953","Geografia botánica de Santander."," Publicaciones diputación provincial de Santander. 412","R55","No forest",-3.800447036,43.39010631,"4 - UTM10x10 + Centroid",36
"24",207781,138,14233,"30TVP30","","Q-P07781",27802,NA,"Granja Escuela de Heras","ES","ATL_COAST","N_DUNES",NA,"",NA,25,"0","Associació-Desconeguda","Guinea López, Emilio","1953","Geografia botánica de Santander."," Publicaciones diputación provincial de Santander. 412","R55","No forest",-3.800447036,43.39010631,"4 - UTM10x10 + Centroid",36
"25",207782,138,14233,"30TVP30","","Q-P07782",27803,NA,"Granja Escuela de Heras","ES","ATL_COAST","N_DUNES",NA,"",NA,25,"0","Associació-Desconeguda","Guinea López, Emilio","1953","Geografia botánica de Santander."," Publicaciones diputación provincial de Santander. 412","R55","No forest",-3.800447036,43.39010631,"4 - UTM10x10 + Centroid",36
"26",208526,80,9547,"30TUN55","","Q-P08526",6432,1200,"Pantano de Camporredondo","ES","ATL_COAST","N_DUNES",80,"",NA,8,"L083","Agropyro-Rumicion crispi","García González, M.E.","1990","Flora y vegetación de la sierra del Brezo y de la comarca de la Peña (Palencia)","Tesis Doct.","V35","No forest",-4.746745554,42.89163034,"3 - UTM10x10 + Elevation",1200
"27",208542,91,8335,"30TUN74","","Q-P08542",6448,1080,"Ventanilla","ES","ATL_COAST","N_DUNES",70,"",NA,12,"2010","Glycerio declinatae-Oenanthetum crocatae","García González, M.E.","1990","Flora y vegetación de la sierra del Brezo y de la comarca de la Peña (Palencia)","Tesis Doct.","V39","No forest",-4.475347302,42.8090015,"3 - UTM10x10 + Elevation",1080
"28",208600,87,9235,"30TUN74","","Q-P08600",6506,1190,"Cantoral de la Peña","ES","ATL_COAST","N_DUNES",40,"W",5,40,"2933b","Linario odoratissimae-Rumicetum scutati","García González, M.E.","1990","Flora y vegetación de la sierra del Brezo y de la comarca de la Peña (Palencia)","Tesis Doct.","V38","No forest",-4.520068869,42.83723284,"3 - UTM10x10 + Elevation",1190
"29",208601,82,12828,"30TUN64","","Q-P08601",6507,1370,"Ermita de Nª Sª del Brezo","ES","ATL_COAST","N_DUNES",40,"S",10,40,"2933b","Linario odoratissimae-Rumicetum scutati","García González, M.E.","1990","Flora y vegetación de la sierra del Brezo y de la comarca de la Peña (Palencia)","Tesis Doct.","V38","No forest",-4.594200565,42.86504067,"3 - UTM10x10 + Elevation",1370
"30",208620,82,11131,"30TUN55","","Q-P08620",6526,1260,"Camporredondo de Alba","ES","ATL_COAST","N_DUNES",100,"",NA,20,"1009","Chaerophyllo hirsuti-Valerianetum pyrenaicae","García González, M.E.","1990","Flora y vegetación de la sierra del Brezo y de la comarca de la Peña (Palencia)","Tesis Doct.","R55","No forest",-4.783417577,42.88926379,"3 - UTM10x10 + Elevation",1260
"31",208681,85,10626,"30TUN64","","Q-P08681",6557,1250,"Fuente Colorada","ES","ATL_COAST","N_DUNES",100,"N",5,30,"3913","Deschampsio hispanicae-Juncetum effusi","García González, M.E.","1990","Flora y vegetación de la sierra del Brezo y de la comarca de la Peña (Palencia)","Tesis Doct.","R36","No forest",-4.606998304,42.88647376,"3 - UTM10x10 + Elevation",1250
"32",208684,87,9361,"30TUN74","","Q-P08684",6588,1010,"Ruesga","ES","ATL_COAST","N_DUNES",100,"",NA,20,"2648","Senecio laderoi-Filipenduletum ulmariae","García González, M.E.","1990","Flora y vegetación de la sierra del Brezo y de la comarca de la Peña (Palencia)","Tesis Doct.","R55","No forest",-4.493765386,42.86279335,"3 - UTM10x10 + Elevation",1010
"33",208685,72,10615,"30TUN55","","Q-P08685",6589,1020,"Camporredondo de Alba","ES","ATL_COAST","N_DUNES",100,"",NA,30,"2648","Senecio laderoi-Filipenduletum ulmariae","García González, M.E.","1990","Flora y vegetación de la sierra del Brezo y de la comarca de la Peña (Palencia)","Tesis Doct.","R55","No forest",-4.77611585,42.9334869,"4 - UTM10x10 + Centroid",1020
"34",208686,72,10615,"30TUN55","","Q-P08686",6590,1040,"Camporredondo de Alba","ES","ATL_COAST","N_DUNES",100,"",NA,35,"2648","Senecio laderoi-Filipenduletum ulmariae","García González, M.E.","1990","Flora y vegetación de la sierra del Brezo y de la comarca de la Peña (Palencia)","Tesis Doct.","R55","No forest",-4.77611585,42.9334869,"4 - UTM10x10 + Centroid",1040
"35",208693,65,9512,"30TUN54","","Q-P08693",6594,1540,"Valsurvio","ES","ATL_COAST","N_DUNES",100,"S",2,10,"2144","Mentho suaveolentis-Juncetum inflexi","García González, M.E.","1990","Flora y vegetación de la sierra del Brezo y de la comarca de la Peña (Palencia)","Tesis Doct.","R36","No forest",-4.758526612,42.87524101,"3 - UTM10x10 + Elevation",1540
"36",208694,75,12132,"30TUN44","","Q-P08694",6595,1350,"Velilla del rio Carrión","ES","ATL_COAST","N_DUNES",100,"S",5,8,"2144","Mentho suaveolentis-Juncetum inflexi","García González, M.E.","1990","Flora y vegetación de la sierra del Brezo y de la comarca de la Peña (Palencia)","Tesis Doct.","R36","No forest",-4.917278069,42.86188588,"3 - UTM10x10 + Elevation",1350
"37",208696,67,10914,"30TTN65","","Q-P08696",6596,1440,"Collada de Alonga, León","ES","ATL_COAST","N_DUNES",80,"E",10,10,"3937,,,,,GGM3","","","","","","R36","No forest",-5.827128853,42.89705114,"3 - UTM10x10 + Elevation",1440
"38",208697,76,10685,"30TTN65","","Q-P08697",6597,1440,"Collada de Alonga, León","ES","ATL_COAST","N_DUNES",80,"NE",15,20,"3937,,,,,GGM3","","","","","","R36","No forest",-5.926692425,42.93056455,"3 - UTM10x10 + Elevation",1440
"39",208698,88,10145,"30TTN95","","Q-P08698",6598,1140,"Valverdin, León","ES","ATL_COAST","N_DUNES",100,"S",10,20,"3937,,,,,GGM3","","","","","","R36","No forest",-5.529851599,42.87519655,"3 - UTM10x10 + Elevation",1140
"40",208701,75,9944,"30TUN74","","Q-P08701",6600,1330,"Brañosera, Palencia","ES","ATL_COAST","N_DUNES",100,"N",5,12,"3937,,,,,GGM3","","","","","","R36","No forest",-4.552367968,42.85661058,"3 - UTM10x10 + Elevation",1330
"41",208972,93,10280,"30TUN74","","Q-P08972",6860,1060,"Pico del Roblillo","ES","ATL_COAST","N_DUNES",100,"SW",10,30,"2239","Trifolio medii-Lathyretum nigri","García González, M.E.","1990","Flora y vegetación de la sierra del Brezo y de la comarca de la Peña (Palencia)","Tesis Doct.","R55","No forest",-4.530432385,42.86050798,"3 - UTM10x10 + Elevation",1060
"42",208978,78,9195,"30TUN64","","Q-P08978",6864,1350,"Los Caucinos","ES","ATL_COAST","N_DUNES",80,"NE",10,40,"2191","Omphalodo nitidae-Linarietum triornithophorae","García González, M.E.","1990","Flora y vegetación de la sierra del Brezo y de la comarca de la Peña (Palencia)","Tesis Doct.","R57","No forest",-4.671981819,42.84411989,"3 - UTM10x10 + Elevation",1350
"43",208979,79,11032,"30TUN54","","Q-P08979",6865,1350,"Sierra de Canales","ES","ATL_COAST","N_DUNES",100,"",NA,20,"2191","Omphalodo nitidae-Linarietum triornithophorae","García González, M.E.","1990","Flora y vegetación de la sierra del Brezo y de la comarca de la Peña (Palencia)","Tesis Doct.","R57","No forest",-4.804820884,42.86731641,"3 - UTM10x10 + Elevation",1350
"44",209515,150,14014,"29TNG12","29TNG1022","Q-P09515",6391,5,"VIANA DO CASTELO: Montedor","PT","ATL_COAST","N_DUNES",NA,"",NA,NA,"6422","Armerio pubigerae-Festucetum pruinosae","Honrado, J.; Alves, P.; Nepomuceno, H. & Barreto Caldas, F.","2002","XXXIII: Ten new syntaxa from the Miniensean biogeographic subsector (northwestern Portugal). In. Notas do Herbário da Estação Florestal Nacional (LISFA): Fasc. XVI","Silva Lusitana 10(2):","V","No forest",-8.8426134,41.80684825,"3 - UTM10x10 + Elevation",5
"45",209516,147,13993,"29TNG12","29TNG1022","Q-P09516",6392,5,"VIANA DO CASTELO: Montedor","PT","ATL_COAST","N_DUNES",NA,"",NA,NA,"6422","Armerio pubigerae-Festucetum pruinosae","Honrado, J.; Alves, P.; Nepomuceno, H. & Barreto Caldas, F.","2002","XXXIII: Ten new syntaxa from the Miniensean biogeographic subsector (northwestern Portugal). In. Notas do Herbário da Estação Florestal Nacional (LISFA): Fasc. XVI","Silva Lusitana 10(2):","V","No forest",-8.862202408,41.78424259,"3 - UTM10x10 + Elevation",5
"46",209811,109,10514,"29TPG83","29TPG8637","Q-P09811",6944,590,"Bragança, Rabal","PT","ATL_COAST","N_DUNES",90,"",NA,12,"2151","Bidenti tripartitae-Polygonetum lapathifolii","Gonçalves Aguiar, C.F.","2000","Flora e vegetação da Serra de Nogueira e do Parque Natural de Montesinho","Universidade Técnica de Lisboa. Inst. Superior de Agronomia. pp.","R36","No forest",-6.80007697,41.85646934,"4 - UTM10x10 + Centroid",590
"47",209840,109,10514,"29TPG83","29TPG8535","Q-P09840",6970,590,"Bragança: Meixedo, rio Sabor","PT","ATL_COAST","N_DUNES",30,"",NA,4,"6999","Comunidad de Crypsis schoenoides y Cyperus fuscus","Gonçalves Aguiar, C.F.","2000","Flora e vegetação da Serra de Nogueira e do Parque Natural de Montesinho","Universidade Técnica de Lisboa. Inst. Superior de Agronomia. pp.","R36","No forest",-6.80007697,41.85646934,"4 - UTM10x10 + Centroid",590
"48",209913,101,10144,"29TPG72","29TPG7223","Q-P09913",7032,980,"Bragança: Zoio","PT","ATL_COAST","N_DUNES",70,"SW",90,4,"7006","Comunidad de Sedum hirsutum y Umbilicus rupestris","Gonçalves Aguiar, C.F.","2000","Flora e vegetação da Serra de Nogueira e do Parque Natural de Montesinho","Universidade Técnica de Lisboa. Inst. Superior de Agronomia. pp.","V39","No forest",-6.871047478,41.75895828,"3 - UTM10x10 + Elevation",980
"49",209928,117,10245,"29TPG83","29TPG8630","Q-P09928",7044,690,"Bragança: St.ª Maria, junto ao Castelo","PT","ATL_COAST","N_DUNES",70,"SW",90,6,"7007","Comunidad de Phagnalon saxatile y Rumex induratus","Gonçalves Aguiar, C.F.","2000","Flora e vegetação da Serra de Nogueira e do Parque Natural de Montesinho","Universidade Técnica de Lisboa. Inst. Superior de Agronomia. pp.","V","No forest",-6.757534437,41.87439158,"3 - UTM10x10 + Elevation",690
"50",209944,117,11188,"29TPG53","29TPG5637","Q-P09944",7060,550,"Vinhais: Penso","PT","ATL_COAST","N_DUNES",70,"NNW",72,4,"4243b,,,,,GA12","","","","","","V32","No forest",-7.184122898,41.87582657,"3 - UTM10x10 + Elevation",550
"51",209955,116,10615,"29TPG73","29TPG7533","Q-P09955",7071,600,"Bragança: Castrelos","PT","ATL_COAST","N_DUNES",100,"",NA,2,"7009","Comunidad de Carduus pycnocephalus y Carduus tenuiflorus","Gonçalves Aguiar, C.F.","2000","Flora e vegetação da Serra de Nogueira e do Parque Natural de Montesinho","Universidade Técnica de Lisboa. Inst. Superior de Agronomia. pp.","V32","No forest",-6.927495113,41.85609022,"3 - UTM10x10 + Elevation",600
"52",209956,111,9930,"29TPG82","29TPG8023","Q-P09956",7072,880,"Bragança: Rebordãos, estrada do Castelo","PT","ATL_COAST","N_DUNES",100,"",NA,8,"7009","Comunidad de Carduus pycnocephalus y Carduus tenuiflorus","Gonçalves Aguiar, C.F.","2000","Flora e vegetação da Serra de Nogueira e do Parque Natural de Montesinho","Universidade Técnica de Lisboa. Inst. Superior de Agronomia. pp.","V33","No forest",-6.832596758,41.79987008,"3 - UTM10x10 + Elevation",880
"53",209957,116,10282,"29TPG83","29TPG8637","Q-P09957",7073,640,"Bragança: Rabal","PT","ATL_COAST","N_DUNES",100,"",NA,6,"7009","Comunidad de Carduus pycnocephalus y Carduus tenuiflorus","Gonçalves Aguiar, C.F.","2000","Flora e vegetação da Serra de Nogueira e do Parque Natural de Montesinho","Universidade Técnica de Lisboa. Inst. Superior de Agronomia. pp.","V32","No forest",-6.761711225,41.86344897,"3 - UTM10x10 + Elevation",640
"54",209958,116,10615,"29TPG73","29TPG7533","Q-P09958",7074,600,"Bragança: Castrelos, ponte de Castrelos","PT","ATL_COAST","N_DUNES",100,"",NA,8,"7009","Comunidad de Carduus pycnocephalus y Carduus tenuiflorus","Gonçalves Aguiar, C.F.","2000","Flora e vegetação da Serra de Nogueira e do Parque Natural de Montesinho","Universidade Técnica de Lisboa. Inst. Superior de Agronomia. pp.","V33","No forest",-6.927495113,41.85609022,"3 - UTM10x10 + Elevation",600
"55",209959,110,10397,"29TPG63","29TPG6133","Q-P09959",7075,760,"Vinhais: Sobreiró-de-Baixo","PT","ATL_COAST","N_DUNES",100,"",NA,10,"7009","Comunidad de Carduus pycnocephalus y Carduus tenuiflorus","Gonçalves Aguiar, C.F.","2000","Flora e vegetação da Serra de Nogueira e do Parque Natural de Montesinho","Universidade Técnica de Lisboa. Inst. Superior de Agronomia. pp.","V33","No forest",-6.994015306,41.84118635,"3 - UTM10x10 + Elevation",760
"56",209960,112,9853,"29TPG93","29TPG9130","Q-P09960",7076,500,"Bragança: Gimonde","PT","ATL_COAST","N_DUNES",100,"",NA,5,"7009","Comunidad de Carduus pycnocephalus y Carduus tenuiflorus","Gonçalves Aguiar, C.F.","2000","Flora e vegetação da Serra de Nogueira e do Parque Natural de Montesinho","Universidade Técnica de Lisboa. Inst. Superior de Agronomia. pp.","V33","No forest",-6.61857634,41.83535117,"4 - UTM10x10 + Centroid",500
"57",209961,112,9853,"29TPG93","29TPG9536","Q-P09961",7077,600,"Bragança: Labiados","PT","ATL_COAST","N_DUNES",100,"",NA,4,"7009","Comunidad de Carduus pycnocephalus y Carduus tenuiflorus","Gonçalves Aguiar, C.F.","2000","Flora e vegetação da Serra de Nogueira e do Parque Natural de Montesinho","Universidade Técnica de Lisboa. Inst. Superior de Agronomia. pp.","V32","No forest",-6.61857634,41.83535117,"4 - UTM10x10 + Centroid",600
"58",209962,110,9397,"29TPG93","29TPG9832","Q-P09962",7078,820,"Bragança: S. Julião","PT","ATL_COAST","N_DUNES",100,"",NA,8,"7009","Comunidad de Carduus pycnocephalus y Carduus tenuiflorus","Gonçalves Aguiar, C.F.","2000","Flora e vegetação da Serra de Nogueira e do Parque Natural de Montesinho","Universidade Técnica de Lisboa. Inst. Superior de Agronomia. pp.","V32","No forest",-6.605977199,41.83603333,"3 - UTM10x10 + Elevation",820
"59",209963,111,9415,"29TQG03","29TQG0036","Q-P09963",7079,900,"Bragança: Deilão","PT","ATL_COAST","N_DUNES",100,"",NA,6,"7009","Comunidad de Carduus pycnocephalus y Carduus tenuiflorus","Gonçalves Aguiar, C.F.","2000","Flora e vegetação da Serra de Nogueira e do Parque Natural de Montesinho","Universidade Técnica de Lisboa. Inst. Superior de Agronomia. pp.","V33","No forest",-6.589652048,41.8455503,"3 - UTM10x10 + Elevation",900
"60",209964,117,11005,"29TPG83","29TPG8936","Q-P09964",7080,650,"Bragança: Baçal","PT","ATL_COAST","N_DUNES",100,"",NA,16,"7009","Comunidad de Carduus pycnocephalus y Carduus tenuiflorus","Gonçalves Aguiar, C.F.","2000","Flora e vegetação da Serra de Nogueira e do Parque Natural de Montesinho","Universidade Técnica de Lisboa. Inst. Superior de Agronomia. pp.","V33","No forest",-6.736622917,41.88768148,"3 - UTM10x10 + Elevation",650
"61",209965,104,11678,"29TPG74","29TPG7840","Q-P09965",7081,850,"Bragança: Vilarinho de Cova de Lua","PT","ATL_COAST","N_DUNES",100,"",NA,8,"7009","Comunidad de Carduus pycnocephalus y Carduus tenuiflorus","Gonçalves Aguiar, C.F.","2000","Flora e vegetação da Serra de Nogueira e do Parque Natural de Montesinho","Universidade Técnica de Lisboa. Inst. Superior de Agronomia. pp.","V32","No forest",-6.945049791,41.94553263,"3 - UTM10x10 + Elevation",850
"62",209971,113,9914,"29TPG83","29TPG8531","Q-P09971",7085,680,"Bragança: Sé, Quinta do Ricafé","PT","ATL_COAST","N_DUNES",80,"SW",9,8,"5324","Alysso lusitanici-Santolinetum semidentatae","Gonçalves Aguiar, C.F.","2000","Flora e vegetação da Serra de Nogueira e do Parque Natural de Montesinho","Universidade Técnica de Lisboa. Inst. Superior de Agronomia. pp.","V32","No forest",-6.809002485,41.80785977,"3 - UTM10x10 + Elevation",680
"63",209986,113,9435,"29TPG82","29TPG8126","Q-P09986",7098,840,"Bragança: Nogueira, estrada para a Sr.ª da Serra","PT","ATL_COAST","N_DUNES",30,"",NA,1,"1731","Crassulo tillaeae-Saginetum apetalae","Gonçalves Aguiar, C.F.","2000","Flora e vegetação da Serra de Nogueira e do Parque Natural de Montesinho","Universidade Técnica de Lisboa. Inst. Superior de Agronomia. pp.","V35","No forest",-6.827197264,41.74962379,"3 - UTM10x10 + Elevation",840
"64",209989,115,10523,"29TPG83","29TPG8637","Q-P09989",7101,640,"Bragança: Rabal","PT","ATL_COAST","N_DUNES",60,"",NA,1,"1731","Crassulo tillaeae-Saginetum apetalae","Gonçalves Aguiar, C.F.","2000","Flora e vegetação da Serra de Nogueira e do Parque Natural de Montesinho","Universidade Técnica de Lisboa. Inst. Superior de Agronomia. pp.","V34","No forest",-6.766626048,41.8650886,"3 - UTM10x10 + Elevation",640
"65",209991,112,9853,"29TPG93","29TPG9130","Q-P09991",7103,620,"Bragança: Gimonde, junto à estrada Gimonde-Palácios","PT","ATL_COAST","N_DUNES",50,"",NA,2,"1731","Crassulo tillaeae-Saginetum apetalae","Gonçalves Aguiar, C.F.","2000","Flora e vegetação da Serra de Nogueira e do Parque Natural de Montesinho","Universidade Técnica de Lisboa. Inst. Superior de Agronomia. pp.","V35","No forest",-6.61857634,41.83535117,"4 - UTM10x10 + Centroid",620
"66",209993,116,9901,"29TPG93","29TPG9032","Q-P09993",7105,640,"Bragança: Vale de Lamas","PT","ATL_COAST","N_DUNES",30,"",NA,3,"1731","Crassulo tillaeae-Saginetum apetalae","Gonçalves Aguiar, C.F.","2000","Flora e vegetação da Serra de Nogueira e do Parque Natural de Montesinho","Universidade Técnica de Lisboa. Inst. Superior de Agronomia. pp.","V35","No forest",-6.632766489,41.88381447,"3 - UTM10x10 + Elevation",640
"67",209995,112,10173,"29TPG94","29TPG9745","Q-P09995",7107,770,"Bragança: rio de Onor","PT","ATL_COAST","N_DUNES",50,"",NA,4,"1731","Crassulo tillaeae-Saginetum apetalae","Gonçalves Aguiar, C.F.","2000","Flora e vegetação da Serra de Nogueira e do Parque Natural de Montesinho","Universidade Técnica de Lisboa. Inst. Superior de Agronomia. pp.","V34","No forest",-6.613956586,41.93483594,"1 - UTM1x1 + Elevation",770
"68",209998,116,11337,"29TPG84","29TPG8741","Q-P09998",7110,670,"Bragança: França","PT","ATL_COAST","N_DUNES",50,"",NA,1,"1731","Crassulo tillaeae-Saginetum apetalae","Gonçalves Aguiar, C.F.","2000","Flora e vegetação da Serra de Nogueira e do Parque Natural de Montesinho","Universidade Técnica de Lisboa. Inst. Superior de Agronomia. pp.","V35","No forest",-6.730139245,41.90049921,"3 - UTM10x10 + Elevation",670
"69",209999,117,11005,"29TPG83","29TPG8936","Q-P09999",7111,640,"Bragança: Baçal","PT","ATL_COAST","N_DUNES",60,"",NA,1,"7011","Comunidad de Spergularia purpurea y Plantago coronopus","Gonçalves Aguiar, C.F.","2000","Flora e vegetação da Serra de Nogueira e do Parque Natural de Montesinho","Universidade Técnica de Lisboa. Inst. Superior de Agronomia. pp.","V","No forest",-6.736622917,41.88768148,"3 - UTM10x10 + Elevation",640
"70",210001,112,8895,"29TPG93","29TPG9733","Q-P10001",7113,780,"Bragança: Caravela","PT","ATL_COAST","N_DUNES",60,"",NA,1,"7011","Comunidad de Spergularia purpurea y Plantago coronopus","Gonçalves Aguiar, C.F.","2000","Flora e vegetação da Serra de Nogueira e do Parque Natural de Montesinho","Universidade Técnica de Lisboa. Inst. Superior de Agronomia. pp.","V32","No forest",-6.604765258,41.81445954,"3 - UTM10x10 + Elevation",780
"71",210002,110,10172,"29TPG72","29TPG7529","Q-P10002",7114,800,"Bragança: Alimonde","PT","ATL_COAST","N_DUNES",30,"",NA,1,"7011","Comunidad de Spergularia purpurea y Plantago coronopus","Gonçalves Aguiar, C.F.","2000","Flora e vegetação da Serra de Nogueira e do Parque Natural de Montesinho","Universidade Técnica de Lisboa. Inst. Superior de Agronomia. pp.","V","No forest",-6.891229027,41.77448393,"3 - UTM10x10 + Elevation",800
"72",210003,117,10420,"29TPG83","29TPG8032","Q-P10003",7115,670,"Bragança: Grandais","PT","ATL_COAST","N_DUNES",50,"",NA,1,"7011","Comunidad de Spergularia purpurea y Plantago coronopus","Gonçalves Aguiar, C.F.","2000","Flora e vegetação da Serra de Nogueira e do Parque Natural de Montesinho","Universidade Técnica de Lisboa. Inst. Superior de Agronomia. pp.","V35","No forest",-6.75941207,41.86532531,"3 - UTM10x10 + Elevation",670
"73",210004,113,11320,"29TPG73","29TPG7335","Q-P10004",7116,680,"Bragança: Soeira","PT","ATL_COAST","N_DUNES",50,"",NA,1,"7011","Comunidad de Spergularia purpurea y Plantago coronopus","Gonçalves Aguiar, C.F.","2000","Flora e vegetação da Serra de Nogueira e do Parque Natural de Montesinho","Universidade Técnica de Lisboa. Inst. Superior de Agronomia. pp.","V32","No forest",-6.929148103,41.88304723,"3 - UTM10x10 + Elevation",680
"74",210005,115,9813,"29TPG93","29TPG9632","Q-P10005",7117,670,"Bragança: Babe","PT","ATL_COAST","N_DUNES",80,"SE",4.5,8,"4249","Trifolio cherleri-Taeniatheretum capitis-medusae","Gonçalves Aguiar, C.F.","2000","Flora e vegetação da Serra de Nogueira e do Parque Natural de Montesinho","Universidade Técnica de Lisboa. Inst. Superior de Agronomia. pp.","V32","No forest",-6.627751393,41.88037126,"3 - UTM10x10 + Elevation",670
"75",210010,118,10426,"29TPG83","29TPG8630","Q-P10010",7122,670,"Bragança: St.ª Maria-à saída para França","PT","ATL_COAST","N_DUNES",90,"S",2.5,4,"4249","Trifolio cherleri-Taeniatheretum capitis-medusae","Gonçalves Aguiar, C.F.","2000","Flora e vegetação da Serra de Nogueira e do Parque Natural de Montesinho","Universidade Técnica de Lisboa. Inst. Superior de Agronomia. pp.","V32","No forest",-6.757218181,41.8689991,"3 - UTM10x10 + Elevation",670
"76",210011,113,9933,"29TPG83","29TPG8637","Q-P10011",7123,700,"Bragança: Rabal","PT","ATL_COAST","N_DUNES",90,"NE",4.5,4,"4249","Trifolio cherleri-Taeniatheretum capitis-medusae","Gonçalves Aguiar, C.F.","2000","Flora e vegetação da Serra de Nogueira e do Parque Natural de Montesinho","Universidade Técnica de Lisboa. Inst. Superior de Agronomia. pp.","V32","No forest",-6.799392864,41.80817847,"3 - UTM10x10 + Elevation",700
"77",210012,115,10523,"29TPG83","29TPG8637","Q-P10012",7124,650,"Bragança: Rabal","PT","ATL_COAST","N_DUNES",90,"",NA,4,"4249","Trifolio cherleri-Taeniatheretum capitis-medusae","Gonçalves Aguiar, C.F.","2000","Flora e vegetação da Serra de Nogueira e do Parque Natural de Montesinho","Universidade Técnica de Lisboa. Inst. Superior de Agronomia. pp.","V32","No forest",-6.766626048,41.8650886,"3 - UTM10x10 + Elevation",650
"78",210013,115,10426,"29TPG83","29TPG8630","Q-P10013",7125,670,"Bragança: St.ª Maria, junto ao Castelo","PT","ATL_COAST","N_DUNES",80,"SW",45,6,"548","Medicagini rigidulae-Aegilopetum geniculatae","Gonçalves Aguiar, C.F.","2000","Flora e vegetação da Serra de Nogueira e do Parque Natural de Montesinho","Universidade Técnica de Lisboa. Inst. Superior de Agronomia. pp.","V32","No forest",-6.764221399,41.86516756,"3 - UTM10x10 + Elevation",670
"79",210015,114,10612,"29TPG83","29TPG8637","Q-P10015",7126,650,"Bragança: Rabal","PT","ATL_COAST","N_DUNES",60,"",NA,30,"2181","Coincyo setigerae-Brassicetum barrelieri","Gonçalves Aguiar, C.F.","2000","Flora e vegetação da Serra de Nogueira e do Parque Natural de Montesinho","Universidade Técnica de Lisboa. Inst. Superior de Agronomia. pp.","V32","No forest",-6.731706991,41.88604061,"3 - UTM10x10 + Elevation",650
"80",210016,116,11486,"29TPG73","29TPG7335","Q-P10016",7127,680,"Vinhais: Soeira","PT","ATL_COAST","N_DUNES",90,"",NA,10,"2181","Coincyo setigerae-Brassicetum barrelieri","Gonçalves Aguiar, C.F.","2000","Flora e vegetação da Serra de Nogueira e do Parque Natural de Montesinho","Universidade Técnica de Lisboa. Inst. Superior de Agronomia. pp.","V32","No forest",-6.936804617,41.88998822,"3 - UTM10x10 + Elevation",680
"81",210017,112,9853,"29TPG93","29TPG9536","Q-P10017",7128,580,"Bragança: Labiados","PT","ATL_COAST","N_DUNES",100,"SE",45,4,"2181","Coincyo setigerae-Brassicetum barrelieri","Gonçalves Aguiar, C.F.","2000","Flora e vegetação da Serra de Nogueira e do Parque Natural de Montesinho","Universidade Técnica de Lisboa. Inst. Superior de Agronomia. pp.","V32","No forest",-6.61857634,41.83535117,"4 - UTM10x10 + Centroid",580
"82",210018,116,9707,"29TPG93","29TPG9130","Q-P10018",7129,640,"Bragança: Gimonde","PT","ATL_COAST","N_DUNES",70,"W",54,5,"2181","Coincyo setigerae-Brassicetum barrelieri","Gonçalves Aguiar, C.F.","2000","Flora e vegetação da Serra de Nogueira e do Parque Natural de Montesinho","Universidade Técnica de Lisboa. Inst. Superior de Agronomia. pp.","V32","No forest",-6.632460618,41.87842123,"3 - UTM10x10 + Elevation",640
"83",210019,116,9731,"29TPG93","29TPG9130","Q-P10019",7130,680,"Bragança: Gimonde, estrada par a Alta Lombada","PT","ATL_COAST","N_DUNES",100,"S",9,3,"2181","Coincyo setigerae-Brassicetum barrelieri","Gonçalves Aguiar, C.F.","2000","Flora e vegetação da Serra de Nogueira e do Parque Natural de Montesinho","Universidade Técnica de Lisboa. Inst. Superior de Agronomia. pp.","V32","No forest",-6.624837156,41.87145852,"3 - UTM10x10 + Elevation",680
"84",210020,115,11031,"29TPG73","29TPG7335","Q-P10020",7131,700,"Bragança: Soeira, junto à estrada","PT","ATL_COAST","N_DUNES",90,"SW",54,8,"2181","Coincyo setigerae-Brassicetum barrelieri","Gonçalves Aguiar, C.F.","2000","Flora e vegetação da Serra de Nogueira e do Parque Natural de Montesinho","Universidade Técnica de Lisboa. Inst. Superior de Agronomia. pp.","V32","No forest",-6.930891087,41.87218204,"3 - UTM10x10 + Elevation",700
"85",210025,116,10091,"29TPG94","29TPG9040","Q-P10025",7136,650,"Bragança: Aveleda, caminho que margina a rib.ª da Aveleda","PT","ATL_COAST","N_DUNES",100,"",NA,8,"2176","Bromo scoparii-Hordeetum leporini","Gonçalves Aguiar, C.F.","2000","Flora e vegetação da Serra de Nogueira e do Parque Natural de Montesinho","Universidade Técnica de Lisboa. Inst. Superior de Agronomia. pp.","V32","No forest",-6.625956464,41.89123386,"3 - UTM10x10 + Elevation",650
"86",210026,112,9853,"29TPG93","29TPG9536","Q-P10026",7137,620,"Bragança: Labiados","PT","ATL_COAST","N_DUNES",100,"",NA,6,"2176","Bromo scoparii-Hordeetum leporini","Gonçalves Aguiar, C.F.","2000","Flora e vegetação da Serra de Nogueira e do Parque Natural de Montesinho","Universidade Técnica de Lisboa. Inst. Superior de Agronomia. pp.","V32","No forest",-6.61857634,41.83535117,"4 - UTM10x10 + Centroid",620
"87",210118,112,10244,"29TPG83","29TPG8039","Q-P10118",7219,800,"Bragança: Cova de Lua","PT","ATL_COAST","N_DUNES",100,"",NA,6,"7018","Comunidad de Filipendula ulmaria","Gonçalves Aguiar, C.F.","2000","Flora e vegetação da Serra de Nogueira e do Parque Natural de Montesinho","Universidade Técnica de Lisboa. Inst. Superior de Agronomia. pp.","R55","No forest",-6.779569911,41.83944951,"3 - UTM10x10 + Elevation",800
"88",210119,108,11073,"29TPG74","29TPG7442","Q-P10119",7220,900,"Bragança: Zeive","PT","ATL_COAST","N_DUNES",100,"",NA,10,"7018","Comunidad de Filipendula ulmaria","Gonçalves Aguiar, C.F.","2000","Flora e vegetação da Serra de Nogueira e do Parque Natural de Montesinho","Universidade Técnica de Lisboa. Inst. Superior de Agronomia. pp.","R55","No forest",-6.872080787,41.89579402,"3 - UTM10x10 + Elevation",900
"89",210120,114,11623,"29TPG73","29TPG7837","Q-P10120",7221,850,"Bragança: Espinhosela","PT","ATL_COAST","N_DUNES",100,"S",4.5,16,"7018","Comunidad de Filipendula ulmaria","Gonçalves Aguiar, C.F.","2000","Flora e vegetação da Serra de Nogueira e do Parque Natural de Montesinho","Universidade Técnica de Lisboa. Inst. Superior de Agronomia. pp.","R55","No forest",-6.871211312,41.88141603,"3 - UTM10x10 + Elevation",850
"90",210122,107,11630,"29TPG74","29TPG7840","Q-P10122",7223,840,"Bragança: Vilarinho","PT","ATL_COAST","N_DUNES",100,"",NA,12,"7018","Comunidad de Filipendula ulmaria","Gonçalves Aguiar, C.F.","2000","Flora e vegetação da Serra de Nogueira e do Parque Natural de Montesinho","Universidade Técnica de Lisboa. Inst. Superior de Agronomia. pp.","R55","No forest",-6.926212203,41.91376317,"3 - UTM10x10 + Elevation",840
"91",210132,112,9853,"29TPG93","29TPG9536","Q-P10132",7232,550,"Bragança: Labiados","PT","ATL_COAST","N_DUNES",90,"NW",NA,NA,"2174","Anogrammo leptophyllae-Parietarietum lusitanicae","Gonçalves Aguiar, C.F.","2000","Flora e vegetação da Serra de Nogueira e do Parque Natural de Montesinho","Universidade Técnica de Lisboa. Inst. Superior de Agronomia. pp.","V","No forest",-6.61857634,41.83535117,"4 - UTM10x10 + Centroid",550
"92",210151,105,11511,"29TPG84","29TPG8545","Q-P10151",7251,1020,"Bragança: Montesinho, imediatamente a Norte da aldeia","PT","ATL_COAST","N_DUNES",60,"",NA,12,"7020","Comunidad de Ornithogalum concinnum y Agrostis truncatula subps. commista","Gonçalves Aguiar, C.F.","2000","Flora e vegetação da Serra de Nogueira e do Parque Natural de Montesinho","Universidade Técnica de Lisboa. Inst. Superior de Agronomia. pp.","V15","No forest",-6.746470029,41.93238379,"3 - UTM10x10 + Elevation",1020
"93",210231,109,10514,"29TPG83","29TPG8237","Q-P10231",7320,1300,"Bragança: Carragosa, Soutelo, Porto do Sabor","PT","ATL_COAST","N_DUNES",50,"",NA,1,"2123","Agrostio truncatulae-Sedetum lusitanici","Gonçalves Aguiar, C.F.","2000","Flora e vegetação da Serra de Nogueira e do Parque Natural de Montesinho","Universidade Técnica de Lisboa. Inst. Superior de Agronomia. pp.","V15","No forest",-6.80007697,41.85646934,"4 - UTM10x10 + Centroid",1300
"94",210327,106,12016,"29TPG84","29TPG8741","Q-P10327",7405,1040,"Bragança: França, Montesinho, a Norte da aldeia","PT","ATL_COAST","N_DUNES",100,"S",4.5,16,"7025","Comunidad de Agrostis x fouilladei y Arrhenatherum elatius subsp. bulbosus","Gonçalves Aguiar, C.F.","2000","Flora e vegetação da Serra de Nogueira e do Parque Natural de Montesinho","Universidade Técnica de Lisboa. Inst. Superior de Agronomia. pp.","V15","No forest",-6.805684907,41.91422527,"3 - UTM10x10 + Elevation",1040
"95",210329,101,11655,"29TPG74","29TPG7242","Q-P10329",7407,1010,"Vinhais: Mofreita, junto à casa florestal da Mofreita","PT","ATL_COAST","N_DUNES",100,"SW",18,20,"7025","Comunidad de Agrostis x fouilladei y Arrhenatherum elatius subsp. bulbosus","Gonçalves Aguiar, C.F.","2000","Flora e vegetação da Serra de Nogueira e do Parque Natural de Montesinho","Universidade Técnica de Lisboa. Inst. Superior de Agronomia. pp.","V32","No forest",-6.880932239,41.92250847,"3 - UTM10x10 + Elevation",1010
"96",210340,109,10514,"29TPG83","29TPG8237","Q-P10340",7418,1220,"Bragança: Carragosa, Soutelo, planalto antes do Porto do Sabor","PT","ATL_COAST","N_DUNES",100,"",NA,16,"7026","Comunidad de Agrostis x fouilladei y Hypericum linarifolium","Gonçalves Aguiar, C.F.","2000","Flora e vegetação da Serra de Nogueira e do Parque Natural de Montesinho","Universidade Técnica de Lisboa. Inst. Superior de Agronomia. pp.","V15","No forest",-6.80007697,41.85646934,"4 - UTM10x10 + Centroid",1220
"97",210378,111,9325,"29TPG93","29TPG9632","Q-P10378",7455,910,"Bragança: Babe","PT","ATL_COAST","N_DUNES",100,"",NA,4,"3913","Deschampsio hispanicae-Juncetum effusi","Gonçalves Aguiar, C.F.","2000","Flora e vegetação da Serra de Nogueira e do Parque Natural de Montesinho","Universidade Técnica de Lisboa. Inst. Superior de Agronomia. pp.","R36","No forest",-6.59155308,41.83648585,"3 - UTM10x10 + Elevation",910
"98",210379,111,11266,"29TPG73","29TPG7230","Q-P10379",7456,800,"Bragança: Vila Boa de Ousilhão","PT","ATL_COAST","N_DUNES",100,"",NA,6,"3913","Deschampsio hispanicae-Juncetum effusi","Gonçalves Aguiar, C.F.","2000","Flora e vegetação da Serra de Nogueira e do Parque Natural de Montesinho","Universidade Técnica de Lisboa. Inst. Superior de Agronomia. pp.","R36","No forest",-6.863887938,41.87986211,"3 - UTM10x10 + Elevation",800
"99",210386,109,10514,"29TPG83","29TPG8637","Q-P10386",7463,590,"Bragança: Rabal, próximo do parque de campismo","PT","ATL_COAST","N_DUNES",100,"",NA,2,"2141","Hyperico undulati-Juncetum acutiflori","Gonçalves Aguiar, C.F.","2000","Flora e vegetação da Serra de Nogueira e do Parque Natural de Montesinho","Universidade Técnica de Lisboa. Inst. Superior de Agronomia. pp.","R36","No forest",-6.80007697,41.85646934,"4 - UTM10x10 + Centroid",590
"100",210387,115,10735,"29TPG83","29TPG8637","Q-P10387",7464,640,"Bragança: Rabal","PT","ATL_COAST","N_DUNES",100,"",NA,4,"2141","Hyperico undulati-Juncetum acutiflori","Gonçalves Aguiar, C.F.","2000","Flora e vegetação da Serra de Nogueira e do Parque Natural de Montesinho","Universidade Técnica de Lisboa. Inst. Superior de Agronomia. pp.","R36","No forest",-6.734112513,41.8859623,"3 - UTM10x10 + Elevation",640
"101",210392,114,9578,"29TPG93","29TPG9937","Q-P10392",7468,700,"Vinhais: Paçó, junto à estrada para Vinhais","PT","ATL_COAST","N_DUNES",100,"",NA,4,"2141","Hyperico undulati-Juncetum acutiflori","Gonçalves Aguiar, C.F.","2000","Flora e vegetação da Serra de Nogueira e do Parque Natural de Montesinho","Universidade Técnica de Lisboa. Inst. Superior de Agronomia. pp.","R36","No forest",-6.633235152,41.84958107,"3 - UTM10x10 + Elevation",700
"102",210401,112,9853,"29TPG93","29TPG9136","Q-P10401",7476,620,"Bragança: Sacoias","PT","ATL_COAST","N_DUNES",100,"",NA,6,"2144","Mentho suaveolentis-Juncetum inflexi","Gonçalves Aguiar, C.F.","2000","Flora e vegetação da Serra de Nogueira e do Parque Natural de Montesinho","Universidade Técnica de Lisboa. Inst. Superior de Agronomia. pp.","R36","No forest",-6.61857634,41.83535117,"4 - UTM10x10 + Centroid",620
"103",210402,109,9623,"29TPG93","29TPG9733","Q-P10402",7477,850,"Bragança: Caravela","PT","ATL_COAST","N_DUNES",100,"",NA,4,"2144","Mentho suaveolentis-Juncetum inflexi","Gonçalves Aguiar, C.F.","2000","Flora e vegetação da Serra de Nogueira e do Parque Natural de Montesinho","Universidade Técnica de Lisboa. Inst. Superior de Agronomia. pp.","R36","No forest",-6.609291615,41.85213796,"3 - UTM10x10 + Elevation",850
"104",210403,115,9134,"29TPG93","29TPG9732","Q-P10403",7478,870,"Bragança: Palácios","PT","ATL_COAST","N_DUNES",100,"",NA,6,"2144","Mentho suaveolentis-Juncetum inflexi","Gonçalves Aguiar, C.F.","2000","Flora e vegetação da Serra de Nogueira e do Parque Natural de Montesinho","Universidade Técnica de Lisboa. Inst. Superior de Agronomia. pp.","R36","No forest",-6.609167395,41.80711716,"3 - UTM10x10 + Elevation",870
"105",210404,115,9469,"29TPG93","29TPG9732","Q-P10404",7451,860,"Bragança: Palácios","PT","ATL_COAST","N_DUNES",100,"",NA,4,"2144","Mentho suaveolentis-Juncetum inflexi","Gonçalves Aguiar, C.F.","2000","Flora e vegetação da Serra de Nogueira e do Parque Natural de Montesinho","Universidade Técnica de Lisboa. Inst. Superior de Agronomia. pp.","R36","No forest",-6.611772519,41.81063716,"3 - UTM10x10 + Elevation",860
"106",210405,115,10932,"29TPG73","29TPG7335","Q-P10405",7480,720,"Bragança: Soeira","PT","ATL_COAST","N_DUNES",100,"",NA,2,"2144","Mentho suaveolentis-Juncetum inflexi","Gonçalves Aguiar, C.F.","2000","Flora e vegetação da Serra de Nogueira e do Parque Natural de Montesinho","Universidade Técnica de Lisboa. Inst. Superior de Agronomia. pp.","R36","No forest",-6.930560288,41.86679066,"3 - UTM10x10 + Elevation",720
"107",210406,109,10514,"29TPG83","29TPG8535","Q-P10406",7481,600,"Bragança: Meixedo, estrada Bragança-Portelo","PT","ATL_COAST","N_DUNES",100,"NE",4.5,4,"2144","Mentho suaveolentis-Juncetum inflexi","Gonçalves Aguiar, C.F.","2000","Flora e vegetação da Serra de Nogueira e do Parque Natural de Montesinho","Universidade Técnica de Lisboa. Inst. Superior de Agronomia. pp.","R36","No forest",-6.80007697,41.85646934,"4 - UTM10x10 + Centroid",600
"108",210407,109,10514,"29TPG83","29TPG8637","Q-P10407",7482,590,"Bragança, Rabal","PT","ATL_COAST","N_DUNES",90,"",NA,12,"7031","Comunidad de Paspalum paspalodes","Gonçalves Aguiar, C.F.","2000","Flora e vegetação da Serra de Nogueira e do Parque Natural de Montesinho","Universidade Técnica de Lisboa. Inst. Superior de Agronomia. pp.","R36","No forest",-6.80007697,41.85646934,"4 - UTM10x10 + Centroid",590
"109",210413,116,9701,"29TPG82","29TPG8128","Q-P10413",7487,750,"Bragança: Gostei, Castanheira","PT","ATL_COAST","N_DUNES",100,"S",9,4,"227","Trifolio fragiferi-Cynodontetum dactyli","Gonçalves Aguiar, C.F.","2000","Flora e vegetação da Serra de Nogueira e do Parque Natural de Montesinho","Universidade Técnica de Lisboa. Inst. Superior de Agronomia. pp.","R36","No forest",-6.808149786,41.79348049,"3 - UTM10x10 + Elevation",750
"110",210414,112,10576,"29TPG84","29TPG8741","Q-P10414",7488,660,"Bragança: França junto ao estradão para o picadeiro","PT","ATL_COAST","N_DUNES",100,"",NA,3,"3938","Lolio perennis-Plantaginetum maioris","Gonçalves Aguiar, C.F.","2000","Flora e vegetação da Serra de Nogueira e do Parque Natural de Montesinho","Universidade Técnica de Lisboa. Inst. Superior de Agronomia. pp.","R36","No forest",-6.72501324,41.89526299,"3 - UTM10x10 + Elevation",660
"111",210415,109,10514,"29TPG83","29TPG8637","Q-P10415",7489,590,"Bragança: Rabal, junto ao rio Sabor","PT","ATL_COAST","N_DUNES",100,"",NA,3,"3938","Lolio perennis-Plantaginetum maioris","Gonçalves Aguiar, C.F.","2000","Flora e vegetação da Serra de Nogueira e do Parque Natural de Montesinho","Universidade Técnica de Lisboa. Inst. Superior de Agronomia. pp.","R36","No forest",-6.80007697,41.85646934,"4 - UTM10x10 + Centroid",590
"112",211767,115,13426,"29TNG62","29TNG6723","Q-P11767",7889,620,"Terras de Bouro, S. João do Campo","PT","ATL_COAST","N_DUNES",NA,"",NA,NA,"2642","Ranunculetum omiophylli","Vieira, C.; Honrado, J.J.; Séneca, A.; Barreto Caldas, F.","2003","Comunidades higrófilas herbáceas (classes Phragmito-Magnocaricetea, Isoeto-Littorelletea, Scheuchzerio-Caricetea, Oxycocco-Sphagnetea e Montio-Cardaminetea) no Parque Nacional da Peneda-Gerês (Noreste de Portugal Continental)","Quercetea 4:","R36","No forest",-8.248518471,41.81041212,"3 - UTM10x10 + Elevation",620
"113",211822,133,14722,"29TNG12","29TNG1022","Q-P11822",7944,NA,"Viana do Castelo, Montedor","PT","ATL_COAST","N_DUNES",NA,"",NA,NA,"7609","Crithmo-Armerietum pubigerae","Honrado, J.; Nepomuceno Alves, H.","2003","Dados sobre vegetação do litoral rochoso do Norte de Portugal Continental (sector Galaico-Português, região Eurossiberiana)","Quercetea 4:","V","No forest",-8.814358446,41.77589495,"4 - UTM10x10 + Centroid",157
"114",211824,133,14722,"29TNG12","29TNG1022","Q-P11824",7916,NA,"Viana do Castelo, Montedor","PT","ATL_COAST","N_DUNES",NA,"",NA,NA,"7609","Crithmo-Armerietum pubigerae","Honrado, J.; Nepomuceno Alves, H.","2003","Dados sobre vegetação do litoral rochoso do Norte de Portugal Continental (sector Galaico-Português, região Eurossiberiana)","Quercetea 4:","V","No forest",-8.814358446,41.77589495,"4 - UTM10x10 + Centroid",157
"115",211826,151,12480,"29TNF27","29TNF2076","Q-P11826",7948,NA,"Vila do Conde Forte da Srª da Guia","PT","ATL_COAST","N_DUNES",NA,"",NA,NA,"7609","Crithmo-Armerietum pubigerae","Honrado, J.; Nepomuceno Alves, H.","2003","Dados sobre vegetação do litoral rochoso do Norte de Portugal Continental (sector Galaico-Português, região Eurossiberiana)","Quercetea 4:","V34","No forest",-8.692062013,41.32952567,"4 - UTM10x10 + Centroid",45
"116",211832,133,14722,"29TNG12","29TNG1022","Q-P11832",7954,NA,"Viana do Castelo, Montedor","PT","ATL_COAST","N_DUNES",NA,"",NA,NA,"6422","Armerio pubigerae-Festucetum pruinosae","Honrado, J.; Nepomuceno Alves, H.","2003","Dados sobre vegetação do litoral rochoso do Norte de Portugal Continental (sector Galaico-Português, região Eurossiberiana)","Quercetea 4:","V","No forest",-8.814358446,41.77589495,"4 - UTM10x10 + Centroid",157
"117",211853,149,12002,"29TNF26","29TNF2364","Q-P11853",7975,NA,"Matosinhos, Pampelido, Facho","PT","ATL_COAST","N_DUNES",NA,"",NA,NA,"7611","Comunidade de Plantago coronopus e Catapodium marinum","Honrado, J.; Nepomuceno Alves, H.","2003","Dados sobre vegetação do litoral rochoso do Norte de Portugal Continental (sector Galaico-Português, região Eurossiberiana)","Quercetea 4:","V34","No forest",-8.681068468,41.2388078,"4 - UTM10x10 + Centroid",46
"118",211857,150,14547,"29TNG13","29TNG1031","Q-P11857",7979,NA,"Caminha, Vila Praia de Ancora, Santo Isidoro","PT","ATL_COAST","N_DUNES",NA,"",NA,NA,"7611","Comunidade de Plantago coronopus e Catapodium marinum","Honrado, J.; Nepomuceno Alves, H.","2003","Dados sobre vegetação do litoral rochoso do Norte de Portugal Continental (sector Galaico-Português, região Eurossiberiana)","Quercetea 4:","V34","No forest",-8.808796947,41.86186237,"4 - UTM10x10 + Centroid",92
"119",212575,146,11523,"29TNF25","","Q-P12575",7776,NA,"Matosinhos, pr. Boa Nova","PT","ATL_COAST","Y_DUNES",80,"",NA,50,"7899","Eryngio maritimae-Honckenyetum peploidis","Braun-Blanquet, J.; Braun-Blanquet, G.; Rozeira, A.; Pinto da Silva, A.R.","1972","Résultats de trois excursions géobotaniques à travers le Portugal septentrional et moyen. IV. Esquisse sur la végétation dunale.","Agron. Lusit. 33:","V","No forest",-8.660078251,41.16368921,"4 - UTM10x10 + Centroid",38
"120",212576,146,11523,"29TNF25","","Q-P12576",7777,NA,"Matosinhos, pr. Boa Nova","PT","ATL_COAST","Y_DUNES",90,"",NA,50,"7899","Eryngio maritimae-Honckenyetum peploidis","Braun-Blanquet, J.; Braun-Blanquet, G.; Rozeira, A.; Pinto da Silva, A.R.","1972","Résultats de trois excursions géobotaniques à travers le Portugal septentrional et moyen. IV. Esquisse sur la végétation dunale.","Agron. Lusit. 33:","V","No forest",-8.660078251,41.16368921,"4 - UTM10x10 + Centroid",38
"121",212580,149,12002,"29TNF26","","Q-P12580",7781,NA,"Matosinhos, entre Leixões e Boa Nova","PT","ATL_COAST","Y_DUNES",60,"",NA,100,"7899","Eryngio maritimae-Honckenyetum peploidis","Braun-Blanquet, J.; Braun-Blanquet, G.; Rozeira, A.; Pinto da Silva, A.R.","1972","Résultats de trois excursions géobotaniques à travers le Portugal septentrional et moyen. IV. Esquisse sur la végétation dunale.","Agron. Lusit. 33:","V","No forest",-8.681068468,41.2388078,"4 - UTM10x10 + Centroid",46
"122",212588,146,11523,"29TNF25","","Q-P12588",7784,NA,"Matosinhos, Boa Nova","PT","ATL_COAST","Y_DUNES",NA,"",NA,100,"7900a","Agropyro junceiformis-Otanchetum","Braun-Blanquet, J.; Braun-Blanquet, G.; Rozeira, A.; Pinto da Silva, A.R.","1972","Résultats de trois excursions géobotaniques à travers le Portugal septentrional et moyen. IV. Esquisse sur la végétation dunale.","Agron. Lusit. 33:","V","No forest",-8.660078251,41.16368921,"4 - UTM10x10 + Centroid",38
"123",212590,146,11523,"29TNF25","","Q-P12590",7786,NA,"Matosinhos, entre Boa Nova et Pampelido","PT","ATL_COAST","Y_DUNES",NA,"W",NA,25,"7900a","Agropyro junceiformis-Otanchetum","Braun-Blanquet, J.; Braun-Blanquet, G.; Rozeira, A.; Pinto da Silva, A.R.","1972","Résultats de trois excursions géobotaniques à travers le Portugal septentrional et moyen. IV. Esquisse sur la végétation dunale.","Agron. Lusit. 33:","V","No forest",-8.660078251,41.16368921,"4 - UTM10x10 + Centroid",38
"124",212591,146,11523,"29TNF25","","Q-P12591",7787,NA,"Matosinhos, entre Boa Nova et Pampelido","PT","ATL_COAST","Y_DUNES",50,"",NA,100,"7900a","Agropyro junceiformis-Otanchetum","Braun-Blanquet, J.; Braun-Blanquet, G.; Rozeira, A.; Pinto da Silva, A.R.","1972","Résultats de trois excursions géobotaniques à travers le Portugal septentrional et moyen. IV. Esquisse sur la végétation dunale.","Agron. Lusit. 33:","V","No forest",-8.660078251,41.16368921,"4 - UTM10x10 + Centroid",38
"125",212609,146,11523,"29TNF25","","Q-P12609",7800,NA,"Matosinhos, Boa Nova, au N. du phare","PT","ATL_COAST","Y_DUNES",90,"",NA,15,"7900b","Agropyro junceiformis-Otanchetum","Braun-Blanquet, J.; Braun-Blanquet, G.; Rozeira, A.; Pinto da Silva, A.R.","1972","Résultats de trois excursions géobotaniques à travers le Portugal septentrional et moyen. IV. Esquisse sur la végétation dunale.","Agron. Lusit. 33:","V","No forest",-8.660078251,41.16368921,"4 - UTM10x10 + Centroid",38
"126",212610,146,11523,"29TNF25","","Q-P12610",7801,NA,"Matosinhos, Boa Nova, au N. du phare","PT","ATL_COAST","Y_DUNES",90,"",NA,100,"7900b","Agropyro junceiformis-Otanchetum","Braun-Blanquet, J.; Braun-Blanquet, G.; Rozeira, A.; Pinto da Silva, A.R.","1972","Résultats de trois excursions géobotaniques à travers le Portugal septentrional et moyen. IV. Esquisse sur la végétation dunale.","Agron. Lusit. 33:","V","No forest",-8.660078251,41.16368921,"4 - UTM10x10 + Centroid",38
"127",212611,150,14547,"29TNG13","","Q-P12611",7802,NA,"Caminha, Pinhal de Camarido","PT","ATL_COAST","Y_DUNES",50,"",NA,100,"7900b","Agropyro junceiformis-Otanchetum","Braun-Blanquet, J.; Braun-Blanquet, G.; Rozeira, A.; Pinto da Silva, A.R.","1972","Résultats de trois excursions géobotaniques à travers le Portugal septentrional et moyen. IV. Esquisse sur la végétation dunale.","Agron. Lusit. 33:","V","No forest",-8.808796947,41.86186237,"4 - UTM10x10 + Centroid",92
"128",212616,150,14547,"29TNG13","","Q-P12616",7806,NA,"Caminha, Pinhal do Camarido","PT","ATL_COAST","Y_DUNES",50,"",NA,100,"7900b","Agropyro junceiformis-Otanchetum","Braun-Blanquet, J.; Braun-Blanquet, G.; Rozeira, A.; Pinto da Silva, A.R.","1972","Résultats de trois excursions géobotaniques à travers le Portugal septentrional et moyen. IV. Esquisse sur la végétation dunale.","Agron. Lusit. 33:","V","No forest",-8.808796947,41.86186237,"4 - UTM10x10 + Centroid",92
"129",212632,146,11523,"29TNF25","","Q-P12632",7811,NA,"Matosinhos, Boa Nova","PT","ATL_COAST","Y_DUNES",70,"",NA,100,"6573","Scrophulario-Vulpietum alopecuroris","Braun-Blanquet, J.; Braun-Blanquet, G.; Rozeira, A.; Pinto da Silva, A.R.","1972","Résultats de trois excursions géobotaniques à travers le Portugal septentrional et moyen. IV. Esquisse sur la végétation dunale.","Agron. Lusit. 33:","V","No forest",-8.660078251,41.16368921,"4 - UTM10x10 + Centroid",38
"130",214543,122,11274,"29TNF92","","Q-P14543",27910,956,"Castro Daire, Almofala, Almofala, Viseu","PT","ATL_COAST","N_DUNES",50,"N",50,50,"9426","Halimio alyssoidis-Pterospartetum cantabrici","Monteiro-Henriques, T.","2010","Landscape and phytosociology of the Paiva river's hidrographical basin.","Universidade técnica de Lisboa, Instituto superior de agronomia. Tesis doctoral","V39","No forest",-7.852840351,40.89040708,"4 - UTM10x10 + Centroid",956
"131",214829,117,11080,"29TPH16","","Q-P14829",8177,NA,"remansos del río Miño en Lugo","ES","ATL_COAST","N_DUNES",100,"",NA,20,"9470","Comunidad de Sparganium erectum subsp. erectum","Izco, J.; Rodríguez-Dacal, C.; Sánchez, J.M.","1994","Análisis geobotánico de las Caldas de Lugo. Estudios sobre el Balneario de Lugo.","Memoria de la Real Academia de Farmacia 20:","V","No forest",-7.588419647,43.02898735,"4 - UTM10x10 + Centroid",453
"132",214853,130,15082,"29TNJ73","","Q-P14853",8200,NA,"Vilarrube, Coruña","ES","ATL_COAST","Y_DUNES",80,"",NA,200,"6184a","Euphorbio paraliae-Agropyretum junceiformis","Izco, J., Guitián, P.; Sánchez, J.M.","1993","Análisis y clasificación de las comunidades vegetales vivaces de las dunas vivas gallegas.","Revista Academia Galega de Ciencias, Vol XII:","V","No forest",-8.047242241,43.64975184,"4 - UTM10x10 + Centroid",118
"133",214859,139,18357,"29TNH01","","Q-P14859",8206,NA,"Areoso, Pontevedra","ES","ATL_COAST","Y_DUNES",100,"",NA,100,"6184a","Euphorbio paraliae-Agropyretum junceiformis","Izco, J., Guitián, P.; Sánchez, J.M.","1993","Análisis y clasificación de las comunidades vegetales vivaces de las dunas vivas gallegas.","Revista Academia Galega de Ciencias, Vol XII:","V","No forest",-8.968067165,42.60139968,"4 - UTM10x10 + Centroid",62
"134",214873,127,13021,"29TPJ24","","Q-P14873",8220,NA,"Lago, Lugo","ES","ATL_COAST","Y_DUNES",90,"",NA,50,"6184d","Euphorbio paraliae-Agropyretum junceiformis","Izco, J., Guitián, P.; Sánchez, J.M.","1993","Análisis y clasificación de las comunidades vegetales vivaces de las dunas vivas gallegas.","Revista Academia Galega de Ciencias, Vol XII:","V","No forest",-7.485612978,43.71546834,"4 - UTM10x10 + Centroid",33
"135",214878,138,19750,"29TMH93","","Q-P14878",8225,NA,"Abelleira, Coruña","ES","ATL_COAST","Y_DUNES",100,"",NA,100,"6184d","Euphorbio paraliae-Agropyretum junceiformis","Izco, J., Guitián, P.; Sánchez, J.M.","1993","Análisis y clasificación de las comunidades vegetales vivaces de las dunas vivas gallegas.","Revista Academia Galega de Ciencias, Vol XII:","V","No forest",-9.076223063,42.78970726,"4 - UTM10x10 + Centroid",103.5
"136",214882,123,13040,"29TPJ33","","Q-P14882",8229,NA,"Burela, Lugo","ES","ATL_COAST","Y_DUNES",80,"",NA,30,"6184g","Euphorbio paraliae-Agropyretum junceiformis","Izco, J., Guitián, P.; Sánchez, J.M.","1993","Análisis y clasificación de las comunidades vegetales vivaces de las dunas vivas gallegas.","Revista Academia Galega de Ciencias, Vol XII:","V","No forest",-7.358996827,43.63781364,"4 - UTM10x10 + Centroid",83
"137",214884,113,14203,"29TNG09","","Q-P14884",8231,NA,"Ons, Pontevedra","ES","ATL_COAST","Y_DUNES",50,"",NA,20,"6184g","Euphorbio paraliae-Agropyretum junceiformis","Izco, J., Guitián, P.; Sánchez, J.M.","1993","Análisis y clasificación de las comunidades vegetales vivaces de las dunas vivas gallegas.","Revista Academia Galega de Ciencias, Vol XII:","V","No forest",-7,43,"5 - UTMs missing from DEM",NA
"138",214886,131,12027,"29TPJ42","","Q-P14886",8233,NA,"Remior, Lugo","ES","ATL_COAST","Y_DUNES",80,"",NA,20,"6184g","Euphorbio paraliae-Agropyretum junceiformis","Izco, J., Guitián, P.; Sánchez, J.M.","1993","Análisis y clasificación de las comunidades vegetales vivaces de las dunas vivas gallegas.","Revista Academia Galega de Ciencias, Vol XII:","V","No forest",-7.207137109,43.54212824,"4 - UTM10x10 + Centroid",45
"139",214890,125,14276,"29TNJ51","","Q-P14890",8237,NA,"Doniños, Coruña","ES","ATL_COAST","Y_DUNES",30,"",NA,40,"6184f","Euphorbio paraliae-Agropyretum junceiformis","Izco, J., Guitián, P.; Sánchez, J.M.","1993","Análisis y clasificación de las comunidades vegetales vivaces de las dunas vivas gallegas.","Revista Academia Galega de Ciencias, Vol XII:","V","No forest",-8.288224484,43.48981062,"4 - UTM10x10 + Centroid",113
"140",214893,146,17005,"29TNH00","","Q-P14893",8240,NA,"Area Grande, Pontevedra","ES","ATL_COAST","Y_DUNES",70,"",NA,40,"6184f","Euphorbio paraliae-Agropyretum junceiformis","Izco, J., Guitián, P.; Sánchez, J.M.","1993","Análisis y clasificación de las comunidades vegetales vivaces de las dunas vivas gallegas.","Revista Academia Galega de Ciencias, Vol XII:","V","No forest",-8.906344767,42.47094377,"4 - UTM10x10 + Centroid",26
"141",214896,119,11613,"29TPJ32","","Q-P14896",8243,NA,"Fazouro, Lugo","ES","ATL_COAST","Y_DUNES",100,"",NA,50,"6184f","Euphorbio paraliae-Agropyretum junceiformis","Izco, J., Guitián, P.; Sánchez, J.M.","1993","Análisis y clasificación de las comunidades vegetales vivaces de las dunas vivas gallegas.","Revista Academia Galega de Ciencias, Vol XII:","V","No forest",-7.331193615,43.56366237,"4 - UTM10x10 + Centroid",128
"142",214897,144,17097,"29TNH10","","Q-P14897",8244,NA,"A Toxa, Pontevedra","ES","ATL_COAST","Y_DUNES",70,"",NA,20,"6184f","Euphorbio paraliae-Agropyretum junceiformis","Izco, J., Guitián, P.; Sánchez, J.M.","1993","Análisis y clasificación de las comunidades vegetales vivaces de las dunas vivas gallegas.","Revista Academia Galega de Ciencias, Vol XII:","V","No forest",-8.793821713,42.48911863,"4 - UTM10x10 + Centroid",27
"143",214898,NA,NA,"29TNJ94","","Q-P14898",8245,NA,"Espasante, Lugo","ES","ATL_COAST","Y_DUNES",90,"",NA,100,"6184f","Euphorbio paraliae-Agropyretum junceiformis","Izco, J., Guitián, P.; Sánchez, J.M.","1993","Análisis y clasificación de las comunidades vegetales vivaces de las dunas vivas gallegas.","Revista Academia Galega de Ciencias, Vol XII:","V","No forest",-7.855641753,43.7269692,"4 - UTM10x10 + Centroid",56
"144",214904,139,18357,"29TNH01","","Q-P14904",8251,NA,"Areoso, Pontevedra","ES","ATL_COAST","Y_DUNES",70,"",NA,70,"6184f","Euphorbio paraliae-Agropyretum junceiformis","Izco, J., Guitián, P.; Sánchez, J.M.","1993","Análisis y clasificación de las comunidades vegetales vivaces de las dunas vivas gallegas.","Revista Academia Galega de Ciencias, Vol XII:","V","No forest",-8.968067165,42.60139968,"4 - UTM10x10 + Centroid",62
"145",214905,144,17097,"29TNH10","","Q-P14905",8252,NA,"A Toxa, Pontevedra","ES","ATL_COAST","Y_DUNES",70,"",NA,20,"6184f","Euphorbio paraliae-Agropyretum junceiformis","Izco, J., Guitián, P.; Sánchez, J.M.","1993","Análisis y clasificación de las comunidades vegetales vivaces de las dunas vivas gallegas.","Revista Academia Galega de Ciencias, Vol XII:","V","No forest",-8.793821713,42.48911863,"4 - UTM10x10 + Centroid",27
"146",214916,138,19750,"29TMH93","","Q-P14916",8234,NA,"Louro, Coruña","ES","ATL_COAST","Y_DUNES",80,"",NA,50,"2292l,,,,,ISJ0 RGM1 SJ12","","","","","","V","No forest",-9.076223063,42.78970726,"4 - UTM10x10 + Centroid",103.5
"147",214929,141,18011,"29TMH91","","Q-P14929",8276,NA,"Corrubedo, Coruña","ES","ATL_COAST","Y_DUNES",90,"",NA,20,"2292d","Otantho maritimi-Ammophiletum australis","Izco, J., Guitián, P.; Sánchez, J.M.","1993","Análisis y clasificación de las comunidades vegetales vivaces de las dunas vivas gallegas.","Revista Academia Galega de Ciencias, Vol XII:","V","No forest",-9.025752336,42.59067368,"4 - UTM10x10 + Centroid",36
"148",214941,113,14203,"29TNG07","","Q-P14941",28059,NA,"Pontevedra, Islas Cies: Isla del Faro","ES","ATL_COAST","N_DUNES",90,"S",NA,20,"9472","Calendulo algarbiensis-Parietarietum diffusae","Guitián, J.; Guitián, P.","1989","La influencia de las colonias de aves marinas en la vegetación de los acantilados del noroeste ibérico.","Bol. Soc. Brot., Sér 2, 62:","V","No forest",-7,43,"5 - UTMs missing from DEM",NA
"149",214942,113,14203,"29TNG07","","Q-P14942",28060,NA,"Pontevedra, Islas Cies: Isla del Faro","ES","ATL_COAST","N_DUNES",100,"SW",NA,15,"9472","Calendulo algarbiensis-Parietarietum diffusae","Guitián, J.; Guitián, P.","1989","La influencia de las colonias de aves marinas en la vegetación de los acantilados del noroeste ibérico.","Bol. Soc. Brot., Sér 2, 62:","V","No forest",-7,43,"5 - UTMs missing from DEM",NA
"150",214944,113,14203,"29TNG07","","Q-P14944",28062,NA,"Pontevedra, Islas Cies: Isla del Faro","ES","ATL_COAST","N_DUNES",100,"S",NA,20,"9472","Calendulo algarbiensis-Parietarietum diffusae","Guitián, J.; Guitián, P.","1989","La influencia de las colonias de aves marinas en la vegetación de los acantilados del noroeste ibérico.","Bol. Soc. Brot., Sér 2, 62:","V","No forest",-7,43,"5 - UTMs missing from DEM",NA
"151",307173,108,16352,"30TXN26","30TXN2062","R-P07173",9030,620,"Navarra , Quinto Real: collado de Artesiaga , camino forestal","ES","ATL_COAST","N_DUNES",100,"",30,12,"794","Cardamino flexuosae-Chrysosplenietum oppositifolii","Báscones, J.C.","1978","Relaciones suelo-vegetación en la Navarra húmeda del noroeste. Estudio florístico-ecológico."," Tesis Doctoral ined. Universidad de","R55","No forest",-1.520601224,43.0052585,"2 - UTM1x1 + Centroid",620
"152",307261,112,13411,"30TXN15","30TXN1058","R-P07261",9089,700,"Navarra , Urrizola-Galain , Mte. Eipaitzburu","ES","ATL_COAST","N_DUNES",NA,"",20,100,"5897,,,,,BCJ1","","","","","","V33","No forest",-1.646585131,42.96719617,"1 - UTM1x1 + Elevation",700
"153",307321,135,14183,"30TWP20","","R-P07321",8701,NA,"Debajo del Ogoño, Laga","ES","ATL_COAST","N_DUNES",NA,"W",NA,2,"5940","Associación de Crithmum maritimum y Plantago maritima","Guinea López, Emilio","1949","Vizcaya y su paisaje vegetal (geobotánica vizcaína)."," Junta de cultura de Vizcaya. 432","V","No forest",-2.701623837,43.38536069,"4 - UTM10x10 + Centroid",149
"154",307359,128,12685,"30TVN99","","R-P07359",9006,NA,"Playa de La Arena, San Julián de Musques","ES","ATL_COAST","Y_DUNES",NA,"",NA,4,"5941_a","Ammophiletum","Guinea López, Emilio","1949","Vizcaya y su paisaje vegetal (geobotánica vizcaína)."," Junta de cultura de Vizcaya. 432","V","No forest",-3.064475134,43.30297494,"4 - UTM10x10 + Centroid",127
"155",307363,128,12685,"30TVN99","","R-P07363",9010,NA,"Playa de La Arena, San Julián de Musques","ES","ATL_COAST","Y_DUNES",NA,"",NA,4,"5941_a","Ammophiletum","Guinea López, Emilio","1949","Vizcaya y su paisaje vegetal (geobotánica vizcaína)."," Junta de cultura de Vizcaya. 432","V","No forest",-3.064475134,43.30297494,"4 - UTM10x10 + Centroid",127
"156",307365,128,12685,"30TVN99","","R-P07365",9012,NA,"Playa de La Arena, San Julián de Musques","ES","ATL_COAST","Y_DUNES",NA,"",NA,4,"5941_a","Ammophiletum","Guinea López, Emilio","1949","Vizcaya y su paisaje vegetal (geobotánica vizcaína)."," Junta de cultura de Vizcaya. 432","V","No forest",-3.064475134,43.30297494,"4 - UTM10x10 + Centroid",127
"157",307367,128,12685,"30TVN99","","R-P07367",9014,NA,"Playa de La Arena, San Julián de Musques","ES","ATL_COAST","Y_DUNES",NA,"",NA,4,"5941_a","Ammophiletum","Guinea López, Emilio","1949","Vizcaya y su paisaje vegetal (geobotánica vizcaína)."," Junta de cultura de Vizcaya. 432","V","No forest",-3.064475134,43.30297494,"4 - UTM10x10 + Centroid",127
"158",307368,128,12685,"30TVN99","","R-P07368",9015,NA,"Playa de La Arena, San Julián de Musques","ES","ATL_COAST","Y_DUNES",NA,"",NA,4,"5941_a","Ammophiletum","Guinea López, Emilio","1949","Vizcaya y su paisaje vegetal (geobotánica vizcaína)."," Junta de cultura de Vizcaya. 432","V","No forest",-3.064475134,43.30297494,"4 - UTM10x10 + Centroid",127
"159",307370,128,12685,"30TVN99","","R-P07370",9017,NA,"Playa de La Arena, San Julián de Musques","ES","ATL_COAST","Y_DUNES",NA,"",NA,4,"5941_a","Ammophiletum","Guinea López, Emilio","1949","Vizcaya y su paisaje vegetal (geobotánica vizcaína)."," Junta de cultura de Vizcaya. 432","V","No forest",-3.064475134,43.30297494,"4 - UTM10x10 + Centroid",127
"160",307589,135,14183,"30TWP20","","R-P07589",8941,NA,"Tapiales de Pedernales","ES","ATL_COAST","N_DUNES",NA,"S",NA,2,"L816","Polypodion serrati","Guinea López, Emilio","1949","Vizcaya y su paisaje vegetal (geobotánica vizcaína)."," Junta de cultura de Vizcaya. 432","V39","No forest",-2.701623837,43.38536069,"4 - UTM10x10 + Centroid",149
"161",309860,140,12623,"30TWN09","30TWN0296","R-P09860",9177,10,"Leioa , parking de hipermercado","ES","ATL_COAST","N_DUNES",90,"",NA,3,"L189","Polycarpion tetraphylli","Campos, J.A.","2000","Soliva pterosperma (Juss.) Less. in Notes breves sur certaines centuries distribuées dans le fascicule","Bull. Soc. Ech. Plant. Vasc. Eur. Occ. Et bas. Med.  28:","V35","No forest",-2.963323257,43.31737687,"1 - UTM1x1 + Elevation",10
"162",314738,128,7871,"30TXN32","30TXN3823","R-P14738",9405,435,"Navarra , Lumbier , río Irati","ES","ATL_COAST","N_DUNES",NA,"",NA,30,"980","Rorippo-Agrostietum stoloniferae","García-Mijangos, I.; Biurrun, I.; Darquistade, A.; Herrera, M. & Loidi, J.","2004","Nueva cartografía de los hábitats en los lugares de interés comunitario (L.I.C.) fluviales de Navarra. Manual de interpretación de los hábitats.","Informe para Viveros y Repoblaciones de","R36","No forest",-1.333678027,42.6568947,"3 - UTM10x10 + Elevation",435
"163",314747,126,7257,"30TXN31","30TXN3511","R-P14747",9407,390,"Navarra , Sanguesa, cerca de Cáseda , río Aragón (izq.), Soto Larroza","ES","ATL_COAST","N_DUNES",NA,"",NA,30,"980","Rorippo-Agrostietum stoloniferae","García-Mijangos, I.; Biurrun, I.; Darquistade, A.; Herrera, M. & Loidi, J.","2004","Nueva cartografía de los hábitats en los lugares de interés comunitario (L.I.C.) fluviales de Navarra. Manual de interpretación de los hábitats.","Informe para Viveros y Repoblaciones de","R36","No forest",-1.376829654,42.60572333,"4 - UTM10x10 + Centroid",390
"164",314826,100,15073,"30TXN35","30TXN3459","R-P14826",9425,860,"Navarra , Burguete, cerca del Camping , río Urrobi","ES","ATL_COAST","N_DUNES",NA,"",NA,80,"435","Ranunculo acris-Filipenduletum ulmariae","García-Mijangos, I.; Biurrun, I.; Darquistade, A.; Herrera, M. & Loidi, J.","2004","Nueva cartografía de los hábitats en los lugares de interés comunitario (L.I.C.) fluviales de Navarra. Manual de interpretación de los hábitats.","Informe para Viveros y Repoblaciones de","R55","No forest",-1.352163286,42.97234041,"1 - UTM1x1 + Elevation",860
"165",314827,101,15076,"30TXN35","30TXN3459","R-P14827",9426,860,"Navarra , Burguete , río Urrobi cerca del Camping","ES","ATL_COAST","N_DUNES",NA,"",NA,50,"435","Ranunculo acris-Filipenduletum ulmariae","García-Mijangos, I.; Biurrun, I.; Darquistade, A.; Herrera, M. & Loidi, J.","2004","Nueva cartografía de los hábitats en los lugares de interés comunitario (L.I.C.) fluviales de Navarra. Manual de interpretación de los hábitats.","Informe para Viveros y Repoblaciones de","R55","No forest",-1.349615365,42.97590563,"1 - UTM1x1 + Elevation",860
"166",314828,101,15938,"30TXN35","30TXN3357","R-P14828",9427,840,"Navarra , Arce, de Burguete a Venta de Arrieta, carretera cerca del Urrobi","ES","ATL_COAST","N_DUNES",NA,"",NA,20,"525","Chaerophyllo hirsuti-Valerianetum pyrenaicae","García-Mijangos, I.; Biurrun, I.; Darquistade, A.; Herrera, M. & Loidi, J.","2004","Nueva cartografía de los hábitats en los lugares de interés comunitario (L.I.C.) fluviales de Navarra. Manual de interpretación de los hábitats.","Informe para Viveros y Repoblaciones de","R55","No forest",-1.367349335,42.95454831,"1 - UTM1x1 + Elevation",840
"167",314830,74,12767,"30TXN44","30TXN4341","R-P14830",9428,620,"Navarra , Urraul Alto , de Elcoaz a Ongoz, río Areta","ES","ATL_COAST","N_DUNES",NA,"",NA,40,"6667_b,,,,,GMI0 BI00 DA04 HM00 LAJ0","","","","","","R55","No forest",-1.229690806,42.86945262,"4 - UTM10x10 + Centroid",620
"168",314995,101,14959,"30TXN35","30TXN3559","R-P14995",9458,860,"Navarra , Burguete , río Urrobi en el puente a Garralda","ES","ATL_COAST","N_DUNES",NA,"",NA,50,"979","Mentho longifoliae-Juncetum inflexi","García-Mijangos, I.; Biurrun, I.; Darquistade, A.; Herrera, M. & Loidi, J.","2004","Nueva cartografía de los hábitats en los lugares de interés comunitario (L.I.C.) fluviales de Navarra. Manual de interpretación de los hábitats.","Informe para Viveros y Repoblaciones de","R55","No forest",-1.342308477,42.97399905,"1 - UTM1x1 + Elevation",860
"169",315086,141,15764,"30TWN69","30TWN6094","R-P15086",25363,NA,"Zumaia , Playa","ES","ATL_COAST","Y_DUNES",NA,"",NA,40,"2024e","Euphorbio-Agropyretum junceiformis","Loidi, A.","1983","Estudio de la flora y vegetación de las cuencas de los rios Deva y Urola en la provincia de Guipuzcoa."," Tesi Doctoral,","V","No forest",-2.253187686,43.30052125,"2 - UTM1x1 + Centroid",82
"170",315088,141,15764,"30TWN69","30TWN6094","R-P15088",25365,NA,"Zumaia , Playa","ES","ATL_COAST","Y_DUNES",NA,"",NA,10,"2024e","Euphorbio-Agropyretum junceiformis","Loidi, A.","1983","Estudio de la flora y vegetación de las cuencas de los rios Deva y Urola en la provincia de Guipuzcoa."," Tesi Doctoral,","V","No forest",-2.253187686,43.30052125,"2 - UTM1x1 + Centroid",82
"171",315089,141,15764,"30TWN69","30TWN6094","R-P15089",25366,NA,"Zumaia , Playa","ES","ATL_COAST","Y_DUNES",NA,"",NA,20,"2024e","Euphorbio-Agropyretum junceiformis","Loidi, A.","1983","Estudio de la flora y vegetación de las cuencas de los rios Deva y Urola en la provincia de Guipuzcoa."," Tesi Doctoral,","V","No forest",-2.253187686,43.30052125,"2 - UTM1x1 + Centroid",82
"172",315126,141,15764,"30TWN69","30TWN6094","R-P15126",25347,NA,"Zumaia","ES","ATL_COAST","Y_DUNES",NA,"",NA,NA,"6804","Com. de Lagurus ovatus-Vulpia membranacea var. occidentalis","Loidi, A.","1983","Estudio de la flora y vegetación de las cuencas de los rios Deva y Urola en la provincia de Guipuzcoa."," Tesi Doctoral,","V","No forest",-2.253187686,43.30052125,"2 - UTM1x1 + Centroid",82
"173",315127,141,15764,"30TWN69","30TWN6094","R-P15127",25374,NA,"Zumaia","ES","ATL_COAST","N_DUNES",NA,"",NA,1,"6804","Com. de Lagurus ovatus-Vulpia membranacea var. occidentalis","Loidi, A.","1983","Estudio de la flora y vegetación de las cuencas de los rios Deva y Urola en la provincia de Guipuzcoa."," Tesi Doctoral,","V32","No forest",-2.253187686,43.30052125,"2 - UTM1x1 + Centroid",82
"174",315128,141,15764,"30TWN69","30TWN6094","R-P15128",25349,NA,"Zumaia","ES","ATL_COAST","N_DUNES",NA,"",NA,1,"6804","Com. de Lagurus ovatus-Vulpia membranacea var. occidentalis","Loidi, A.","1983","Estudio de la flora y vegetación de las cuencas de los rios Deva y Urola en la provincia de Guipuzcoa."," Tesi Doctoral,","V","No forest",-2.253187686,43.30052125,"2 - UTM1x1 + Centroid",82
"175",315131,141,15764,"30TWN69","30TWN6094","R-P15131",25352,NA,"Zumaia","ES","ATL_COAST","N_DUNES",NA,"",NA,2,"6804","Com. de Lagurus ovatus-Vulpia membranacea var. occidentalis","Loidi, A.","1983","Estudio de la flora y vegetación de las cuencas de los rios Deva y Urola en la provincia de Guipuzcoa."," Tesi Doctoral,","V32","No forest",-2.253187686,43.30052125,"2 - UTM1x1 + Centroid",82
"176",315227,135,16061,"30TWN67","30TWN6179","R-P15227",25550,140,"Urrestilla , Aratz-Erreka","ES","ATL_COAST","N_DUNES",NA,"",NA,40,"6806","Com. de Juncus conglomeratus-Juncus effusus","Loidi, A.","1983","Estudio de la flora y vegetación de las cuencas de los rios Deva y Urola en la provincia de Guipuzcoa."," Tesi Doctoral,","R36","No forest",-2.244994559,43.16541349,"1 - UTM1x1 + Elevation",140
"177",315228,140,16254,"30TWN79","30TWN7192","R-P15228",25551,10,"Orio","ES","ATL_COAST","N_DUNES",NA,"",NA,10,"6806","Com. de Juncus conglomeratus-Juncus effusus","Loidi, A.","1983","Estudio de la flora y vegetación de las cuencas de los rios Deva y Urola en la provincia de Guipuzcoa."," Tesi Doctoral,","R36","No forest",-2.122773917,43.28160238,"1 - UTM1x1 + Elevation",10
"178",315229,124,15723,"30TWN67","30TWN6473","R-P15229",25552,220,"Entre Getaria y Meagas","ES","ATL_COAST","N_DUNES",NA,"",NA,20,"6806","Com. de Juncus conglomeratus-Juncus effusus","Loidi, A.","1983","Estudio de la flora y vegetación de las cuencas de los rios Deva y Urola en la provincia de Guipuzcoa."," Tesi Doctoral,","R55","No forest",-2.206331777,43.11112293,"2 - UTM1x1 + Centroid",220
"179",315230,135,14099,"30TWN49","30TWN4796","R-P15230",25553,10,"Mutriku , Saturraran","ES","ATL_COAST","N_DUNES",NA,"",NA,20,"6806","Com. de Juncus conglomeratus-Juncus effusus","Loidi, A.","1983","Estudio de la flora y vegetación de las cuencas de los rios Deva y Urola en la provincia de Guipuzcoa."," Tesi Doctoral,","R36","No forest",-2.413263737,43.32128059,"1 - UTM1x1 + Elevation",10
"180",315231,126,14739,"30TWN47","30TWN4973","R-P15231",25554,350,"Antzuola , Uzarraga","ES","ATL_COAST","N_DUNES",NA,"",NA,10,"236","Lolio-Plantaginetum majoris","Loidi, A.","1983","Estudio de la flora y vegetación de las cuencas de los rios Deva y Urola en la provincia de Guipuzcoa."," Tesi Doctoral,","R36","No forest",-2.390664564,43.114054,"1 - UTM1x1 + Elevation",350
"181",315232,118,12581,"30TWN36","30TWN3562","R-P15232",25555,250,"Escoriatza , Mazmela","ES","ATL_COAST","N_DUNES",NA,"",NA,3,"236","Lolio-Plantaginetum majoris","Loidi, A.","1983","Estudio de la flora y vegetación de las cuencas de los rios Deva y Urola en la provincia de Guipuzcoa."," Tesi Doctoral,","R36","No forest",-2.563454837,43.013988,"2 - UTM1x1 + Centroid",250
"182",315234,128,14383,"30TWN59","30TWN5093","R-P15234",25557,200,"Mutriku , Puerto del Calvario","ES","ATL_COAST","N_DUNES",NA,"",NA,2,"236","Lolio-Plantaginetum majoris","Loidi, A.","1983","Estudio de la flora y vegetación de las cuencas de los rios Deva y Urola en la provincia de Guipuzcoa."," Tesi Doctoral,","R36","No forest",-2.38152812,43.28869691,"1 - UTM1x1 + Elevation",200
"183",315235,108,14497,"30TWN46","30TWN4360","R-P15235",25558,250,"Oñate , Araoz","ES","ATL_COAST","N_DUNES",NA,"",NA,5,"236","Lolio-Plantaginetum majoris","Loidi, A.","1983","Estudio de la flora y vegetación de las cuencas de los rios Deva y Urola en la provincia de Guipuzcoa."," Tesi Doctoral,","R36","No forest",-2.465443153,42.99556208,"2 - UTM1x1 + Centroid",250
"184",315236,134,14760,"30TWN47","30TWN4774","R-P15236",25559,150,"Bergara","ES","ATL_COAST","N_DUNES",NA,"",NA,8,"236","Lolio-Plantaginetum majoris","Loidi, A.","1983","Estudio de la flora y vegetación de las cuencas de los rios Deva y Urola en la provincia de Guipuzcoa."," Tesi Doctoral,","R36","No forest",-2.420111451,43.11960994,"1 - UTM1x1 + Elevation",150
"185",315239,128,15088,"30TWN47","30TWN4373","R-P15239",25562,190,"Bergara , Angiozar","ES","ATL_COAST","N_DUNES",NA,"",NA,5,"236","Lolio-Plantaginetum majoris","Loidi, A.","1983","Estudio de la flora y vegetación de las cuencas de los rios Deva y Urola en la provincia de Guipuzcoa."," Tesi Doctoral,","R36","No forest",-2.464425444,43.11262204,"2 - UTM1x1 + Centroid",190
"186",315241,136,17119,"30TWN59","30TWN5093","R-P15241",25564,180,"Mutriku , Puerto del Calvario","ES","ATL_COAST","N_DUNES",NA,"",NA,4,"236","Lolio-Plantaginetum majoris","Loidi, A.","1983","Estudio de la flora y vegetación de las cuencas de los rios Deva y Urola en la provincia de Guipuzcoa."," Tesi Doctoral,","R36","No forest",-2.376561004,43.29227179,"1 - UTM1x1 + Elevation",180
"187",315242,129,15830,"30TWN47","30TWN4674","R-P15242",25565,250,"Bergara , San Marcial","ES","ATL_COAST","N_DUNES",NA,"",NA,5,"236","Lolio-Plantaginetum majoris","Loidi, A.","1983","Estudio de la flora y vegetación de las cuencas de los rios Deva y Urola en la provincia de Guipuzcoa."," Tesi Doctoral,","R36","No forest",-2.429961719,43.11785847,"1 - UTM1x1 + Elevation",250
"188",315352,141,15547,"30TWN69","30TWN6094","R-P15352",25646,0,"Zumaia , Playa","ES","ATL_COAST","Y_DUNES",NA,"",NA,2,"3244","Otantho-Ammophiletum arundinaceae","Loidi, A.","1983","Estudio de la flora y vegetación de las cuencas de los rios Deva y Urola en la provincia de Guipuzcoa."," Tesi Doctoral,","V","No forest",-2.250699994,43.30232202,"1 - UTM1x1 + Elevation",0
"189",315353,135,16865,"30TWN89","30TWN8297","R-P15353",25647,NA,"San Sebastián","ES","ATL_COAST","N_DUNES",NA,"",NA,NA,"6803","Com. de Brassica oleracea-Crithmum maritimum","Loidi, A.","1983","Estudio de la flora y vegetación de las cuencas de los rios Deva y Urola en la provincia de Guipuzcoa."," Tesi Doctoral,","V12","No forest",-1.981567007,43.32369778,"2 - UTM1x1 + Centroid",66
"190",315354,141,16176,"30TWN79","30TWN7492","R-P15354",25648,0,"Orio , ría del Oria","ES","ATL_COAST","N_DUNES",NA,"",NA,10,"1976","Oenanthetum crocatae","Loidi, A.","1983","Estudio de la flora y vegetación de las cuencas de los rios Deva y Urola en la provincia de Guipuzcoa."," Tesi Doctoral,","R55","No forest",-2.085857104,43.27771146,"1 - UTM1x1 + Elevation",0
"191",317063,113,18677,"30TXN28","30TXN2187","R-P17063",9647,500,"Baztan. Pto. Otsondo, Navarra","ES","ATL_COAST","N_DUNES",NA,"",NA,NA,"7210a","Festuco hirtulae-Sedetum pyrenaici","Berastegi, A.; Biurrun, I.; Campos, J.A.; García-Mijangos, I.; Herrera, M.; Loidi, J.","2010","La alianza Sedion pyrenaici Tüxen ex Rivas-Martínez et al. 1994 en el norte de Navarra (España)","Braun-Blanquetia, 46:","V","No forest",-1.502857894,43.23014517,"1 - UTM1x1 + Elevation",500
"192",317453,145,12079,"30TVP31","","R-P17453",9498,NA,"Duna primaria de Usil, en Mogro, Cantabria.","ES","ATL_COAST","Y_DUNES",90,"",NA,20,"2024f","Euphorbio-Agropyretum junceiformis","Loriente Escallada, E.","1979","Datos sobre la vegetación en Cantabria, II.","Documents phytosociologiques, vol. IV:","V","No forest",-3.821186692,43.46727446,"4 - UTM10x10 + Centroid",21
"193",317471,142,12380,"30TUP90","","R-P17471",9515,NA,"Duna primaria de La Rabia, en El Tejo, Cantabria.","ES","ATL_COAST","Y_DUNES",90,"",NA,20,"2024f","Euphorbio-Agropyretum junceiformis","Loriente Escallada, E.","1979","Datos sobre la vegetación en Cantabria, II.","Documents phytosociologiques, vol. IV:","V","No forest",-4.296413727,43.37119587,"4 - UTM10x10 + Centroid",58
"194",317472,136,13847,"30TVP70","","R-P17472",9516,NA,"Duna primaria de La Ribera, en Oriñón, Cantabria.","ES","ATL_COAST","Y_DUNES",50,"",NA,20,"2024f","Euphorbio-Agropyretum junceiformis","Loriente Escallada, E.","1979","Datos sobre la vegetación en Cantabria, II.","Documents phytosociologiques, vol. IV:","V","No forest",-3.311323105,43.38164629,"4 - UTM10x10 + Centroid",191
"195",319713,130,11238,"30TUP02","","R-P19713",9983,NA,"Villaviciosa","ES","ATL_COAST","Y_DUNES",NA,"",NA,100,"7728","Agropyretum pycnanthi","Bueno, A.","1997","Flora y vegetación de los estuarios asturianos","Cuadernos de Medio Ambiente Naturaleza 3, 352","V","No forest",-5.419352129,43.52696353,"4 - UTM10x10 + Centroid",132
"196",319804,132,11189,"29TPJ52","","R-P19804",10074,NA,"Eo","ES","ATL_COAST","N_DUNES",NA,"",NA,10,"2286","Agrostio stoloniferae-Juncetum maritimi","Bueno, A.","1997","Flora y vegetación de los estuarios asturianos","Cuadernos de Medio Ambiente Naturaleza 3, 352","V11","No forest",-7.089128404,43.53843902,"4 - UTM10x10 + Centroid",40
"197",319846,130,11238,"30TUP02","","R-P19846",10116,NA,"Villaviciosa","ES","ATL_COAST","N_DUNES",NA,"",NA,20,"2286","Agrostio stoloniferae-Juncetum maritimi","Bueno, A.","1997","Flora y vegetación de los estuarios asturianos","Cuadernos de Medio Ambiente Naturaleza 3, 352","R36","No forest",-5.419352129,43.52696353,"4 - UTM10x10 + Centroid",132
"198",319853,129,9953,"30TTP60","","R-P19853",10123,NA,"Nalón","ES","ATL_COAST","N_DUNES",NA,"",NA,50,"2286","Agrostio stoloniferae-Juncetum maritimi","Bueno, A.","1997","Flora y vegetación de los estuarios asturianos","Cuadernos de Medio Ambiente Naturaleza 3, 352","R55","No forest",-5.899179237,43.3607552,"4 - UTM10x10 + Centroid",228
"199",319874,132,11189,"29TPJ52","","R-P19874",10144,NA,"Eo","ES","ATL_COAST","N_DUNES",NA,"",NA,10,"2286","Agrostio stoloniferae-Juncetum maritimi","Bueno, A.","1997","Flora y vegetación de los estuarios asturianos","Cuadernos de Medio Ambiente Naturaleza 3, 352","R36","No forest",-7.089128404,43.53843902,"4 - UTM10x10 + Centroid",40
"200",319875,132,11189,"29TPJ52","","R-P19875",10145,NA,"Eo","ES","ATL_COAST","N_DUNES",NA,"",NA,20,"2286","Agrostio stoloniferae-Juncetum maritimi","Bueno, A.","1997","Flora y vegetación de los estuarios asturianos","Cuadernos de Medio Ambiente Naturaleza 3, 352","R36","No forest",-7.089128404,43.53843902,"4 - UTM10x10 + Centroid",40
"201",319884,132,11189,"29TPJ52","","R-P19884",10154,NA,"Eo","ES","ATL_COAST","N_DUNES",NA,"",NA,25,"2286","Agrostio stoloniferae-Juncetum maritimi","Bueno, A.","1997","Flora y vegetación de los estuarios asturianos","Cuadernos de Medio Ambiente Naturaleza 3, 352","R55","No forest",-7.089128404,43.53843902,"4 - UTM10x10 + Centroid",40
"202",319885,132,11189,"29TPJ52","","R-P19885",10155,NA,"Eo","ES","ATL_COAST","N_DUNES",NA,"",NA,20,"2286","Agrostio stoloniferae-Juncetum maritimi","Bueno, A.","1997","Flora y vegetación de los estuarios asturianos","Cuadernos de Medio Ambiente Naturaleza 3, 352","R55","No forest",-7.089128404,43.53843902,"4 - UTM10x10 + Centroid",40
"203",319896,132,11189,"29TPJ52","","R-P19896",10166,NA,"Eo","ES","ATL_COAST","N_DUNES",NA,"",NA,50,"2286","Agrostio stoloniferae-Juncetum maritimi","Bueno, A.","1997","Flora y vegetación de los estuarios asturianos","Cuadernos de Medio Ambiente Naturaleza 3, 352","R55","No forest",-7.089128404,43.53843902,"4 - UTM10x10 + Centroid",40
"204",319936,134,12631,"29TPJ82","","R-P19936",10206,NA,"Navia","ES","ATL_COAST","N_DUNES",NA,"",NA,2,"7730","Agrostio stoloniferae-Paspaletum vaginati","Bueno, A.","1997","Flora y vegetación de los estuarios asturianos","Cuadernos de Medio Ambiente Naturaleza 3, 352","V","No forest",-6.708298223,43.53800992,"4 - UTM10x10 + Centroid",71
"205",319937,134,12631,"29TPJ82","","R-P19937",10207,NA,"Navia","ES","ATL_COAST","N_DUNES",NA,"",NA,15,"7730","Agrostio stoloniferae-Paspaletum vaginati","Bueno, A.","1997","Flora y vegetación de los estuarios asturianos","Cuadernos de Medio Ambiente Naturaleza 3, 352","V","No forest",-6.708298223,43.53800992,"4 - UTM10x10 + Centroid",71
"206",320105,129,9953,"30TTP60","","R-P20105",10370,NA,"Nalón","ES","ATL_COAST","Y_DUNES",NA,"",NA,50,"7734","Junco maritimi-Elymetum pycnanthi","Bueno, A.","1997","Flora y vegetación de los estuarios asturianos","Cuadernos de Medio Ambiente Naturaleza 3, 352","V15","No forest",-5.899179237,43.3607552,"4 - UTM10x10 + Centroid",228
"207",320127,135,12335,"30TUP41","","R-P20127",10392,NA,"La Huelga","ES","ATL_COAST","N_DUNES",NA,"",NA,5,"7734","Junco maritimi-Elymetum pycnanthi","Bueno, A.","1997","Flora y vegetación de los estuarios asturianos","Cuadernos de Medio Ambiente Naturaleza 3, 352","V","No forest",-4.927763387,43.44035285,"4 - UTM10x10 + Centroid",58
"208",320129,135,12335,"30TUP41","","R-P20129",10394,NA,"Garaña","ES","ATL_COAST","N_DUNES",NA,"",NA,10,"7734","Junco maritimi-Elymetum pycnanthi","Bueno, A.","1997","Flora y vegetación de los estuarios asturianos","Cuadernos de Medio Ambiente Naturaleza 3, 352","V","No forest",-4.927763387,43.44035285,"4 - UTM10x10 + Centroid",58
"209",320130,135,12335,"30TUP41","","R-P20130",10395,NA,"Garaña","ES","ATL_COAST","Y_DUNES",NA,"",NA,1,"7734","Junco maritimi-Elymetum pycnanthi","Bueno, A.","1997","Flora y vegetación de los estuarios asturianos","Cuadernos de Medio Ambiente Naturaleza 3, 352","V","No forest",-4.927763387,43.44035285,"4 - UTM10x10 + Centroid",58
"210",320138,130,11238,"30TUP02","","R-P20138",10403,NA,"Villaviciosa","ES","ATL_COAST","N_DUNES",NA,"",NA,20,"7734","Junco maritimi-Elymetum pycnanthi","Bueno, A.","1997","Flora y vegetación de los estuarios asturianos","Cuadernos de Medio Ambiente Naturaleza 3, 352","V37","No forest",-5.419352129,43.52696353,"4 - UTM10x10 + Centroid",132
"211",320160,131,12237,"30TUP11","","R-P20160",10425,NA,"La Griega","ES","ATL_COAST","N_DUNES",NA,"",NA,15,"7734","Junco maritimi-Elymetum pycnanthi","Bueno, A.","1997","Flora y vegetación de los estuarios asturianos","Cuadernos de Medio Ambiente Naturaleza 3, 352","R55","No forest",-5.28836935,43.46302435,"4 - UTM10x10 + Centroid",166
"212",320161,131,12237,"30TUP11","","R-P20161",10426,NA,"La Griega","ES","ATL_COAST","N_DUNES",NA,"",NA,10,"7734","Junco maritimi-Elymetum pycnanthi","Bueno, A.","1997","Flora y vegetación de los estuarios asturianos","Cuadernos de Medio Ambiente Naturaleza 3, 352","R55","No forest",-5.28836935,43.46302435,"4 - UTM10x10 + Centroid",166
"213",320171,132,11189,"29TPJ52","","R-P20171",10436,NA,"Eo","ES","ATL_COAST","N_DUNES",NA,"",NA,50,"7734","Junco maritimi-Elymetum pycnanthi","Bueno, A.","1997","Flora y vegetación de los estuarios asturianos","Cuadernos de Medio Ambiente Naturaleza 3, 352","V","No forest",-7.089128404,43.53843902,"4 - UTM10x10 + Centroid",40
"214",320178,132,11189,"29TPJ52","","R-P20178",10443,NA,"Eo","ES","ATL_COAST","N_DUNES",NA,"",NA,25,"7734","Junco maritimi-Elymetum pycnanthi","Bueno, A.","1997","Flora y vegetación de los estuarios asturianos","Cuadernos de Medio Ambiente Naturaleza 3, 352","V","No forest",-7.089128404,43.53843902,"4 - UTM10x10 + Centroid",40
"215",320434,130,11238,"30TUP02","","R-P20434",10698,NA,"Villaviciosa","ES","ATL_COAST","N_DUNES",NA,"",NA,10,"7738","Scirpetum compacti-tabernaemontani","Bueno, A.","1997","Flora y vegetación de los estuarios asturianos","Cuadernos de Medio Ambiente Naturaleza 3, 352","R36","No forest",-5.419352129,43.52696353,"4 - UTM10x10 + Centroid",132
"216",320468,134,12631,"29TPJ82","","R-P20468",10731,NA,"Frejulfe","ES","ATL_COAST","N_DUNES",NA,"",NA,50,"7739","Scirpetum pungentis","Bueno, A.","1997","Flora y vegetación de los estuarios asturianos","Cuadernos de Medio Ambiente Naturaleza 3, 352","R55","No forest",-6.708298223,43.53800992,"4 - UTM10x10 + Centroid",71
"217",320515,130,11238,"30TUP02","","R-P20515",10778,NA,"Villaviciosa","ES","ATL_COAST","Y_DUNES",NA,"",NA,9,"7741","Spergulario marinae-Cotuletum coronopifoliae","Bueno, A.","1997","Flora y vegetación de los estuarios asturianos","Cuadernos de Medio Ambiente Naturaleza 3, 352","R36","No forest",-5.419352129,43.52696353,"4 - UTM10x10 + Centroid",132
"218",320725,141,21186,"29TNH12","","R-P20725",11001,NA,"Rianxo","ES","ATL_COAST","N_DUNES",100,"",NA,20,"7832a,,,,,GP04","","","","","","V","No forest",-8.816075569,42.6849531,"4 - UTM10x10 + Centroid",83
"219",320727,149,15472,"29TNG17","","R-P20727",11003,NA,"Samil","ES","ATL_COAST","N_DUNES",100,"",NA,15,"7832a,,,,,GP04","","","","","","V38","No forest",-8.788432989,42.25734148,"4 - UTM10x10 + Centroid",35
"220",320728,149,15472,"29TNG17","","R-P20728",11004,NA,"Samil","ES","ATL_COAST","N_DUNES",100,"",NA,35,"7832a,,,,,GP04","","","","","","V","No forest",-8.788432989,42.25734148,"4 - UTM10x10 + Centroid",35
"221",320735,139,20086,"29TNH03","","R-P20735",11132,NA,"Portosin","ES","ATL_COAST","Y_DUNES",65,"",NA,50,"2023","Honkenyo-Euphorbietum peplis","Guitián, P.","1989","Ecosistemas litorales del noroeste de la Península Ibérica: Complejos de vegetación psamífila e higrófila.","Memoria Doctoral, Fac. Biología Univ. Santiago de Compostela, 273","V38","No forest",-8.927698183,42.76504137,"4 - UTM10x10 + Centroid",100
"222",320736,145,17450,"29TMH90","","R-P20736",11133,NA,"Aguiño","ES","ATL_COAST","Y_DUNES",100,"",NA,60,"2023","Honkenyo-Euphorbietum peplis","Guitián, P.","1989","Ecosistemas litorales del noroeste de la Península Ibérica: Complejos de vegetación psamífila e higrófila.","Memoria Doctoral, Fac. Biología Univ. Santiago de Compostela, 273","V37","No forest",-9.017709156,42.5313731,"4 - UTM10x10 + Centroid",16
"223",320742,120,14997,"29TNH47","","R-P20742",11138,NA,"Abelleira","ES","ATL_COAST","N_DUNES",70,"",NA,100,"2023","Honkenyo-Euphorbietum peplis","Guitián, P.","1989","Ecosistemas litorales del noroeste de la Península Ibérica: Complejos de vegetación psamífila e higrófila.","Memoria Doctoral, Fac. Biología Univ. Santiago de Compostela, 273","V","No forest",-8.446747075,43.1263915,"4 - UTM10x10 + Centroid",349
"224",320749,131,12027,"29TPJ42","","R-P20749",11144,NA,"Remior","ES","ATL_COAST","N_DUNES",30,"",NA,10,"2023","Honkenyo-Euphorbietum peplis","Guitián, P.","1989","Ecosistemas litorales del noroeste de la Península Ibérica: Complejos de vegetación psamífila e higrófila.","Memoria Doctoral, Fac. Biología Univ. Santiago de Compostela, 273","V12","No forest",-7.207137109,43.54212824,"4 - UTM10x10 + Centroid",45
"225",320751,139,18357,"29TNH01","","R-P20751",11146,NA,"Palmeira","ES","ATL_COAST","Y_DUNES",30,"",NA,40,"2023","Honkenyo-Euphorbietum peplis","Guitián, P.","1989","Ecosistemas litorales del noroeste de la Península Ibérica: Complejos de vegetación psamífila e higrófila.","Memoria Doctoral, Fac. Biología Univ. Santiago de Compostela, 273","V37","No forest",-8.968067165,42.60139968,"4 - UTM10x10 + Centroid",62
"226",320753,139,18357,"29TNH01","","R-P20753",11148,NA,"Cabo de Cruz","ES","ATL_COAST","Y_DUNES",65,"",NA,50,"2023","Honkenyo-Euphorbietum peplis","Guitián, P.","1989","Ecosistemas litorales del noroeste de la Península Ibérica: Complejos de vegetación psamífila e higrófila.","Memoria Doctoral, Fac. Biología Univ. Santiago de Compostela, 273","V12","No forest",-8.968067165,42.60139968,"4 - UTM10x10 + Centroid",62
"227",320754,132,15423,"29TNH29","","R-P20754",11149,NA,"Baldaio","ES","ATL_COAST","Y_DUNES",35,"",NA,100,"2023","Honkenyo-Euphorbietum peplis","Guitián, P.","1989","Ecosistemas litorales del noroeste de la Península Ibérica: Complejos de vegetación psamífila e higrófila.","Memoria Doctoral, Fac. Biología Univ. Santiago de Compostela, 273","V","No forest",-8.682926086,43.28009506,"4 - UTM10x10 + Centroid",101.5
"228",320755,120,14997,"29TNH47","","R-P20755",11150,NA,"Abelleira","ES","ATL_COAST","Y_DUNES",100,"",NA,20,"2023","Honkenyo-Euphorbietum peplis","Guitián, P.","1989","Ecosistemas litorales del noroeste de la Península Ibérica: Complejos de vegetación psamífila e higrófila.","Memoria Doctoral, Fac. Biología Univ. Santiago de Compostela, 273","V","No forest",-8.446747075,43.1263915,"4 - UTM10x10 + Centroid",349
"229",320756,140,17343,"29TMH85","","R-P20756",11151,NA,"Sardiñeiro","ES","ATL_COAST","Y_DUNES",70,"",NA,50,"2023","Honkenyo-Euphorbietum peplis","Guitián, P.","1989","Ecosistemas litorales del noroeste de la Península Ibérica: Complejos de vegetación psamífila e higrófila.","Memoria Doctoral, Fac. Biología Univ. Santiago de Compostela, 273","V","No forest",-9.181826792,42.95737157,"4 - UTM10x10 + Centroid",147
"230",320757,120,19814,"29TNH02","","R-P20757",11152,NA,"Barraña","ES","ATL_COAST","Y_DUNES",40,"",NA,10,"2023","Honkenyo-Euphorbietum peplis","Guitián, P.","1989","Ecosistemas litorales del noroeste de la Península Ibérica: Complejos de vegetación psamífila e higrófila.","Memoria Doctoral, Fac. Biología Univ. Santiago de Compostela, 273","V","No forest",-8.939425019,42.6777884,"4 - UTM10x10 + Centroid",332
"231",320758,120,19814,"29TNH02","","R-P20758",11153,NA,"Barraña","ES","ATL_COAST","Y_DUNES",50,"",NA,25,"2023","Honkenyo-Euphorbietum peplis","Guitián, P.","1989","Ecosistemas litorales del noroeste de la Península Ibérica: Complejos de vegetación psamífila e higrófila.","Memoria Doctoral, Fac. Biología Univ. Santiago de Compostela, 273","V","No forest",-8.939425019,42.6777884,"4 - UTM10x10 + Centroid",332
"232",320760,144,17097,"29TNH10","","R-P20760",11155,NA,"Meloxo","ES","ATL_COAST","Y_DUNES",100,"",NA,100,"2023","Honkenyo-Euphorbietum peplis","Guitián, P.","1989","Ecosistemas litorales del noroeste de la Península Ibérica: Complejos de vegetación psamífila e higrófila.","Memoria Doctoral, Fac. Biología Univ. Santiago de Compostela, 273","V15","No forest",-8.793821713,42.48911863,"4 - UTM10x10 + Centroid",27
"233",320763,143,16091,"29TNG18","","R-P20763",11158,NA,"Cabo Udra","ES","ATL_COAST","Y_DUNES",20,"",NA,20,"2023a","Honkenyo-Euphorbietum peplis","Guitián, P.","1989","Ecosistemas litorales del noroeste de la Península Ibérica: Complejos de vegetación psamífila e higrófila.","Memoria Doctoral, Fac. Biología Univ. Santiago de Compostela, 273","V","No forest",-8.796055195,42.2996797,"4 - UTM10x10 + Centroid",90
"234",320764,132,15423,"29TNH29","","R-P20764",11159,NA,"Baldaio","ES","ATL_COAST","Y_DUNES",65,"",NA,50,"2023a","Honkenyo-Euphorbietum peplis","Guitián, P.","1989","Ecosistemas litorales del noroeste de la Península Ibérica: Complejos de vegetación psamífila e higrófila.","Memoria Doctoral, Fac. Biología Univ. Santiago de Compostela, 273","V","No forest",-8.682926086,43.28009506,"4 - UTM10x10 + Centroid",101.5
"235",320766,141,18428,"29TNH11","","R-P20766",11161,NA,"Illa Arousa","ES","ATL_COAST","Y_DUNES",60,"",NA,40,"2023a","Honkenyo-Euphorbietum peplis","Guitián, P.","1989","Ecosistemas litorales del noroeste de la Península Ibérica: Complejos de vegetación psamífila e higrófila.","Memoria Doctoral, Fac. Biología Univ. Santiago de Compostela, 273","V","No forest",-8.7863575,42.57159999,"4 - UTM10x10 + Centroid",30
"236",320767,144,17097,"29TNH10","","R-P20767",11162,NA,"San Vicente","ES","ATL_COAST","Y_DUNES",40,"",NA,30,"2023a","Honkenyo-Euphorbietum peplis","Guitián, P.","1989","Ecosistemas litorales del noroeste de la Península Ibérica: Complejos de vegetación psamífila e higrófila.","Memoria Doctoral, Fac. Biología Univ. Santiago de Compostela, 273","V","No forest",-8.793821713,42.48911863,"4 - UTM10x10 + Centroid",27
"237",320799,120,14997,"29TNH47","","R-P20799",11191,NA,"Abelleira","ES","ATL_COAST","Y_DUNES",100,"",NA,100,"2024i","Euphorbio-Agropyretum junceiformis","Guitián, P.","1989","Ecosistemas litorales del noroeste de la Península Ibérica: Complejos de vegetación psamífila e higrófila.","Memoria Doctoral, Fac. Biología Univ. Santiago de Compostela, 273","V","No forest",-8.446747075,43.1263915,"4 - UTM10x10 + Centroid",349
"238",320803,123,13040,"29TPJ33","","R-P20803",11195,NA,"Burela","ES","ATL_COAST","Y_DUNES",80,"",NA,30,"2024g","Euphorbio-Agropyretum junceiformis","Guitián, P.","1989","Ecosistemas litorales del noroeste de la Península Ibérica: Complejos de vegetación psamífila e higrófila.","Memoria Doctoral, Fac. Biología Univ. Santiago de Compostela, 273","V","No forest",-7.358996827,43.63781364,"4 - UTM10x10 + Centroid",83
"239",320805,113,14203,"29TNG09","","R-P20805",11197,NA,"Ons","ES","ATL_COAST","Y_DUNES",50,"",NA,25,"2024g","Euphorbio-Agropyretum junceiformis","Guitián, P.","1989","Ecosistemas litorales del noroeste de la Península Ibérica: Complejos de vegetación psamífila e higrófila.","Memoria Doctoral, Fac. Biología Univ. Santiago de Compostela, 273","V","No forest",-7,43,"5 - UTMs missing from DEM",NA
"240",320807,131,12027,"29TPJ42","","R-P20807",11199,NA,"Remior","ES","ATL_COAST","Y_DUNES",85,"",NA,20,"2024g","Euphorbio-Agropyretum junceiformis","Guitián, P.","1989","Ecosistemas litorales del noroeste de la Península Ibérica: Complejos de vegetación psamífila e higrófila.","Memoria Doctoral, Fac. Biología Univ. Santiago de Compostela, 273","V","No forest",-7.207137109,43.54212824,"4 - UTM10x10 + Centroid",45
"241",320811,125,14276,"29TNJ51","","R-P20811",11203,NA,"Doniños","ES","ATL_COAST","Y_DUNES",30,"",NA,40,"2024h","Euphorbio-Agropyretum junceiformis","Guitián, P.","1989","Ecosistemas litorales del noroeste de la Península Ibérica: Complejos de vegetación psamífila e higrófila.","Memoria Doctoral, Fac. Biología Univ. Santiago de Compostela, 273","V","No forest",-8.288224484,43.48981062,"4 - UTM10x10 + Centroid",113
"242",320814,146,17005,"29TNH00","","R-P20814",11205,NA,"Area Grande","ES","ATL_COAST","Y_DUNES",70,"",NA,40,"2024h","Euphorbio-Agropyretum junceiformis","Guitián, P.","1989","Ecosistemas litorales del noroeste de la Península Ibérica: Complejos de vegetación psamífila e higrófila.","Memoria Doctoral, Fac. Biología Univ. Santiago de Compostela, 273","V","No forest",-8.906344767,42.47094377,"4 - UTM10x10 + Centroid",26
"243",320818,144,17097,"29TNH10","","R-P20818",11209,NA,"A Toxa","ES","ATL_COAST","Y_DUNES",70,"",NA,20,"2024h","Euphorbio-Agropyretum junceiformis","Guitián, P.","1989","Ecosistemas litorales del noroeste de la Península Ibérica: Complejos de vegetación psamífila e higrófila.","Memoria Doctoral, Fac. Biología Univ. Santiago de Compostela, 273","V","No forest",-8.793821713,42.48911863,"4 - UTM10x10 + Centroid",27
"244",320826,144,17097,"29TNH10","","R-P20826",11216,NA,"A Toxa","ES","ATL_COAST","Y_DUNES",70,"",NA,20,"2024h","Euphorbio-Agropyretum junceiformis","Guitián, P.","1989","Ecosistemas litorales del noroeste de la Península Ibérica: Complejos de vegetación psamífila e higrófila.","Memoria Doctoral, Fac. Biología Univ. Santiago de Compostela, 273","V","No forest",-8.793821713,42.48911863,"4 - UTM10x10 + Centroid",27
"245",320837,138,19750,"29TMH93","","R-P20837",11226,NA,"Louro","ES","ATL_COAST","Y_DUNES",85,"",NA,50,"7833a,,,,,GP04","","","","","","V","No forest",-9.076223063,42.78970726,"4 - UTM10x10 + Centroid",103.5
"246",320850,141,18011,"29TMH91","","R-P20850",11237,NA,"Corrubedo","ES","ATL_COAST","Y_DUNES",90,"",NA,25,"7833b","Otantho-Ammophiletum arundinaceae","Guitián, P.","1989","Ecosistemas litorales del noroeste de la Península Ibérica: Complejos de vegetación psamífila e higrófila.","Memoria Doctoral, Fac. Biología Univ. Santiago de Compostela, 273","V","No forest",-9.025752336,42.59067368,"4 - UTM10x10 + Centroid",36
"247",320917,141,18011,"29TMH91","","R-P20917",11298,NA,"Muro","ES","ATL_COAST","N_DUNES",20,"",NA,5,"3055","Violo henriquesii-Silenetum littoreae","Guitián, P.","1989","Ecosistemas litorales del noroeste de la Península Ibérica: Complejos de vegetación psamífila e higrófila.","Memoria Doctoral, Fac. Biología Univ. Santiago de Compostela, 273","V","No forest",-9.025752336,42.59067368,"4 - UTM10x10 + Centroid",36
"248",320919,138,19750,"29TMH93","","R-P20919",11300,NA,"Louro","ES","ATL_COAST","N_DUNES",30,"",NA,2,"3055","Violo henriquesii-Silenetum littoreae","Guitián, P.","1989","Ecosistemas litorales del noroeste de la Península Ibérica: Complejos de vegetación psamífila e higrófila.","Memoria Doctoral, Fac. Biología Univ. Santiago de Compostela, 273","V","No forest",-9.076223063,42.78970726,"4 - UTM10x10 + Centroid",103.5
