"SIVIMID","DCA1","DCA2","Cluster","EUNIS","Class","Relevé.number","Temp","Precip","UTM10X10","UTM1X1","JuiceID","OriginalElevation","Locality","Country","ECOREG_WWF","DUNES_BOHN","Plant.Cover","Aspect","Slope","Area","SintaxonID","Sintaxon","Authors","Year","Title","Publication","EUNIS2020","Type","DEG_LON","DEG_LAT","Accuracy","Elevation"
"P-P22132",-0.0100693308400486,-0.0508180647640226,"12","V",5,122132,NA,NA,"30TXP31","",6266,5,"France. Pyrenées-Atlantiques, Briscous, ouest d'Etchecolou","FR","ATL_COAST","N_DUNES",80,"",0,400,"9215","Allio vineale-Ranunculetum sardoi","Lazare, J.J.","2005","Miscellanées phytosociologiques.","J. Bot. Soc. Bot. France 31:"," V     ","No forest",-1.319948701,43.43290349,"3 - UTM10x10 + Elevation",5
"Q-P02779",-0.107192985469979,0.382449209549504,"13","?",1,202779,145,12079,"30TVP31","",6272,NA,"Santander","","ATL_COAST","N_DUNES",NA,"",NA,20,"93","Oxalido-Parietarietum","Rivas Martínez, S.","1969","Vegetatio Hispaniae. Notula I."," Publ. Inst. Biol. Apl., XLVI: 5-34.","      ?","No forest",-3.821186692,43.46727446,"4 - UTM10x10 + Centroid",21
"Q-P02783",-0.0384322065086141,0.42041258654656,"13","V15",4,202783,102,11203,"30TVN26","",6275,NA,"Piquio (Santander)","","ATL_COAST","N_DUNES",NA,"",NA,10,"93","Oxalido-Parietarietum","Rivas Martínez, S.","1969","Vegetatio Hispaniae. Notula I."," Publ. Inst. Biol. Apl., XLVI: 5-34."," V15   ","No forest",-3.919741838,43.03362154,"4 - UTM10x10 + Centroid",839
"Q-P02785",-0.0853276028505183,0.299754655763649,"13","?",1,202785,122,15444,"30TWN68","",6277,NA,"Cestona (Guipúzcoa)","","ATL_COAST","N_DUNES",NA,"",NA,20,"772","Centrantho-Hypericetum hircini","Rivas Martínez, S.","1969","Vegetatio Hispaniae. Notula I."," Publ. Inst. Biol. Apl., XLVI: 5-34.","      ?","No forest",-2.198835209,43.21460969,"4 - UTM10x10 + Centroid",313
"Q-P02786",-0.0947165805279562,0.338818636118899,"13","?",1,202786,122,15444,"30TWN68","",6278,NA,"De Zumaya a Cestona (Guipúzcoa)","","ATL_COAST","N_DUNES",NA,"",NA,10,"772","Centrantho-Hypericetum hircini","Rivas Martínez, S.","1969","Vegetatio Hispaniae. Notula I."," Publ. Inst. Biol. Apl., XLVI: 5-34.","      ?","No forest",-2.198835209,43.21460969,"4 - UTM10x10 + Centroid",313
"Q-P02788",-0.105575965017066,0.380912817925166,"13","?",1,202788,138,16126,"30TWN69","",6280,NA,"Zarauz (Guipúzcoa)","","ATL_COAST","N_DUNES",NA,"",NA,10,"772","Centrantho-Hypericetum hircini","Rivas Martínez, S.","1969","Vegetatio Hispaniae. Notula I."," Publ. Inst. Biol. Apl., XLVI: 5-34.","      ?","No forest",-2.204357764,43.28045619,"4 - UTM10x10 + Centroid",82
"Q-P02792",-0.1198891094875,0.425620434752995,"13","?",1,202792,137,20371,"29TNH24","",6284,NA,"Catedral de Santiago de Compostela (Coruña)","","ATL_COAST","N_DUNES",NA,"",NA,50,"1582","Cymbalario-Trachelietum caerulei","Rivas Martínez, S.","1969","Vegetatio Hispaniae. Notula I."," Publ. Inst. Biol. Apl., XLVI: 5-34.","      ?","No forest",-8.693960952,42.8571451,"4 - UTM10x10 + Centroid",202
"Q-P02793",-0.120564966333472,0.428890989007943,"13","?",1,202793,137,20371,"29TNH24","",6285,NA,"Facultad de Farmacia de Santiago de Compostela (Coruña)","","ATL_COAST","N_DUNES",NA,"",NA,50,"1582","Cymbalario-Trachelietum caerulei","Rivas Martínez, S.","1969","Vegetatio Hispaniae. Notula I."," Publ. Inst. Biol. Apl., XLVI: 5-34.","      ?","No forest",-8.693960952,42.8571451,"4 - UTM10x10 + Centroid",202
"Q-P02794",-0.0973932138708097,0.332151027596642,"13","?",1,202794,131,19441,"29TNH25","",6286,NA,"Carretera de Portomouro, Santiago (Coruña)","","ATL_COAST","N_DUNES",NA,"",NA,100,"1582","Cymbalario-Trachelietum caerulei","Rivas Martínez, S.","1969","Vegetatio Hispaniae. Notula I."," Publ. Inst. Biol. Apl., XLVI: 5-34.","      ?","No forest",-8.693537785,42.9471732,"4 - UTM10x10 + Centroid",275
"Q-P07010",0.00419597255088322,0.344004048223556,"5","V32",5,207010,140,12408,"30TUP80","",27674,NA,"El Rosal","ES","ATL_COAST","N_DUNES",NA,"",NA,2,"5825","Comunidad de Elymus pycnanthus (Agropyron pycnanthum) y Atriplex hastata","Aedo Perez, Carlos","1985","Estudio de la flora y vegetación de la comarca de San Vicente de la Barquera (Cantabria)."," Memoria de Licenciatura. Universidad de Oviedo. 217"," V32   ","No forest",-4.419290768,43.36986165,"4 - UTM10x10 + Centroid",59
"Q-P07031",-0.102107327133826,0.367879894198834,"13","?",1,207031,140,12408,"30TUP80","",27655,NA,"La Barquera","ES","ATL_COAST","N_DUNES",NA,"",NA,10,"2048","Parietarietum judaicae","Aedo Perez, Carlos","1985","Estudio de la flora y vegetación de la comarca de San Vicente de la Barquera (Cantabria)."," Memoria de Licenciatura. Universidad de Oviedo. 217","      ?","No forest",-4.419290768,43.36986165,"4 - UTM10x10 + Centroid",59
"Q-P07041",-0.00407552242428594,-0.00243053481474809,"17","V32",5,207041,140,12408,"30TUP80","",27678,NA,"El Rosal","ES","ATL_COAST","N_DUNES",NA,"",NA,10,"753","Sisymbrio officinalis-Hordeetum murini","Aedo Perez, Carlos","1985","Estudio de la flora y vegetación de la comarca de San Vicente de la Barquera (Cantabria)."," Memoria de Licenciatura. Universidad de Oviedo. 217"," V32   ","No forest",-4.419290768,43.36986165,"4 - UTM10x10 + Centroid",59
"Q-P07042",-0.000411660986243872,0.000231346176821856,"2","V32",5,207042,140,12408,"30TUP80","",27659,NA,"El Rosal","ES","ATL_COAST","Y_DUNES",NA,"",NA,15,"753","Sisymbrio officinalis-Hordeetum murini","Aedo Perez, Carlos","1985","Estudio de la flora y vegetación de la comarca de San Vicente de la Barquera (Cantabria)."," Memoria de Licenciatura. Universidad de Oviedo. 217"," V32   ","No forest",-4.419290768,43.36986165,"4 - UTM10x10 + Centroid",59
"Q-P07045",0.0912132592581263,-0.304226899516637,"12","V37",9,207045,140,12408,"30TUP80","",27657,NA,"Abaño","ES","ATL_COAST","N_DUNES",NA,"",NA,20,"2036","Oxalidi latifoliae-Veronicetum persicae","Aedo Perez, Carlos","1985","Estudio de la flora y vegetación de la comarca de San Vicente de la Barquera (Cantabria)."," Memoria de Licenciatura. Universidad de Oviedo. 217"," V37   ","No forest",-4.419290768,43.36986165,"4 - UTM10x10 + Centroid",59
"Q-P07050",-0.0315696925887967,-0.0561832477854403,"1","V32",5,207050,140,12408,"30TUP80","",27636,NA,"La Barquera","ES","ATL_COAST","N_DUNES",NA,"",NA,1,"5828","Comunidad de Spergularia boccomii y Sagina apetala","Aedo Perez, Carlos","1985","Estudio de la flora y vegetación de la comarca de San Vicente de la Barquera (Cantabria)."," Memoria de Licenciatura. Universidad de Oviedo. 217"," V32   ","No forest",-4.419290768,43.36986165,"4 - UTM10x10 + Centroid",59
"Q-P07051",-0.0314120057805714,-0.0540916368175853,"1","V32",5,207051,140,12408,"30TUP80","",27637,NA,"El Rosal","ES","ATL_COAST","N_DUNES",NA,"",NA,2,"5828","Comunidad de Spergularia boccomii y Sagina apetala","Aedo Perez, Carlos","1985","Estudio de la flora y vegetación de la comarca de San Vicente de la Barquera (Cantabria)."," Memoria de Licenciatura. Universidad de Oviedo. 217"," V32   ","No forest",-4.419290768,43.36986165,"4 - UTM10x10 + Centroid",59
"Q-P07071",0.0574106802467823,0.00422325777311305,"1","V39",11,207071,140,12408,"30TUP80","",27645,NA,"La Revilla","ES","ATL_COAST","N_DUNES",NA,"",NA,4,"L008","Glycerio-Sparganion","Aedo Perez, Carlos","1985","Estudio de la flora y vegetación de la comarca de San Vicente de la Barquera (Cantabria)."," Memoria de Licenciatura. Universidad de Oviedo. 217"," V39   ","No forest",-4.419290768,43.36986165,"4 - UTM10x10 + Centroid",59
"Q-P07736",-0.00267243157421659,-0.0680443336160051,"12","V",5,207736,132,11189,"29TPJ52","",27721,NA,"Zona de cereales de Castropol","ES","ATL_COAST","N_DUNES",NA,"",NA,NA,"0","Associació-Desconeguda","Guinea López, Emilio","1953","Geografia botánica de Santander."," Publicaciones diputación provincial de Santander. 412"," V     ","No forest",-7.089128404,43.53843902,"4 - UTM10x10 + Centroid",40
"Q-P07737",-0.0118603191891252,-0.0440920578618941,"6","V15",4,207737,132,11189,"29TPJ52","",27722,NA,"Zona de cereales de Castropol","ES","ATL_COAST","N_DUNES",NA,"",NA,NA,"0","Associació-Desconeguda","Guinea López, Emilio","1953","Geografia botánica de Santander."," Publicaciones diputación provincial de Santander. 412"," V15   ","No forest",-7.089128404,43.53843902,"4 - UTM10x10 + Centroid",40
"Q-P07763",0.0297122669672532,-0.106571803620379,"12","V37",9,207763,137,14078,"30TVP41","",27610,NA,"Carriazo","ES","ATL_COAST","N_DUNES",NA,"",NA,100,"0","Associació-Desconeguda","Guinea López, Emilio","1953","Geografia botánica de Santander."," Publicaciones diputación provincial de Santander. 412"," V37   ","No forest",-3.665204511,43.46129774,"4 - UTM10x10 + Centroid",43
"Q-P07764",0.0193892137594019,-0.0619580445096863,"12","V15",4,207764,137,14078,"30TVP41","",27611,NA,"Carriazo","ES","ATL_COAST","N_DUNES",NA,"",NA,100,"0","Associació-Desconeguda","Guinea López, Emilio","1953","Geografia botánica de Santander."," Publicaciones diputación provincial de Santander. 412"," V15   ","No forest",-3.665204511,43.46129774,"4 - UTM10x10 + Centroid",43
"Q-P07765",0.0255927702197178,-0.107414048565533,"12","V37",9,207765,137,14078,"30TVP41","",27612,NA,"Carriazo","ES","ATL_COAST","N_DUNES",NA,"",NA,100,"0","Associació-Desconeguda","Guinea López, Emilio","1953","Geografia botánica de Santander."," Publicaciones diputación provincial de Santander. 412"," V37   ","No forest",-3.665204511,43.46129774,"4 - UTM10x10 + Centroid",43
"Q-P07766",0.0491982943183749,-0.128636633802679,"12","V37",9,207766,137,14078,"30TVP41","",27613,NA,"Carriazo","ES","ATL_COAST","N_DUNES",NA,"",NA,100,"0","Associació-Desconeguda","Guinea López, Emilio","1953","Geografia botánica de Santander."," Publicaciones diputación provincial de Santander. 412"," V37   ","No forest",-3.665204511,43.46129774,"4 - UTM10x10 + Centroid",43
"Q-P07767",0.0446472182178065,-0.115966600345349,"12","V37",9,207767,137,14078,"30TVP41","",27614,NA,"Carriazo","ES","ATL_COAST","N_DUNES",NA,"",NA,100,"0","Associació-Desconeguda","Guinea López, Emilio","1953","Geografia botánica de Santander."," Publicaciones diputación provincial de Santander. 412"," V37   ","No forest",-3.665204511,43.46129774,"4 - UTM10x10 + Centroid",43
"Q-P07847",-0.0278960549546986,-0.0435799072713443,"6","V",5,207847,139,13435,"30TVP10","",27746,NA,"Estación de Torrelavega","ES","ATL_COAST","N_DUNES",NA,"",NA,NA,"0","Associació-Desconeguda","Guinea López, Emilio","1953","Geografia botánica de Santander."," Publicaciones diputación provincial de Santander. 412"," V     ","No forest",-4.047456892,43.39183754,"4 - UTM10x10 + Centroid",49
"Q-P07849",-0.0207617445288633,-0.0220879470279043,"6","V15",4,207849,94,7976,"30TVN04","",27748,NA,"Parte occidental de Mataporquera","ES","ATL_COAST","N_DUNES",NA,"",NA,NA,"0","Associació-Desconeguda","Guinea López, Emilio","1953","Geografia botánica de Santander."," Publicaciones diputación provincial de Santander. 412"," V15   ","No forest",-4.116472128,42.87622565,"4 - UTM10x10 + Centroid",999.5
"Q-P07850",-0.0210298460632039,-0.0272095052370767,"2","V",5,207850,94,7976,"30TVN04","",27704,NA,"Parte occidental de Mataporquera","ES","ATL_COAST","N_DUNES",NA,"",NA,NA,"0","Associació-Desconeguda","Guinea López, Emilio","1953","Geografia botánica de Santander."," Publicaciones diputación provincial de Santander. 412"," V     ","No forest",-4.116472128,42.87622565,"4 - UTM10x10 + Centroid",999.5
"Q-P07851",-0.0183364314679023,-0.0114913190499165,"6","V15",4,207851,94,7976,"30TVN04","",27705,NA,"Parte occidental de Mataporquera","ES","ATL_COAST","N_DUNES",NA,"",NA,NA,"0","Associació-Desconeguda","Guinea López, Emilio","1953","Geografia botánica de Santander."," Publicaciones diputación provincial de Santander. 412"," V15   ","No forest",-4.116472128,42.87622565,"4 - UTM10x10 + Centroid",999.5
"Q-P07852",-0.0233469879843535,-0.0346779213678946,"6","V15",4,207852,94,7976,"30TVN04","",27706,NA,"Parte occidental de Mataporquera","ES","ATL_COAST","N_DUNES",NA,"",NA,NA,"0","Associació-Desconeguda","Guinea López, Emilio","1953","Geografia botánica de Santander."," Publicaciones diputación provincial de Santander. 412"," V15   ","No forest",-4.116472128,42.87622565,"4 - UTM10x10 + Centroid",999.5
"Q-P07905",-0.0508695530219999,0.111608928834222,"1","?",5,207905,137,14476,"30TVP20","",27715,NA,"Dunas de Mogro","ES","ATL_COAST","Y_DUNES",NA,"",NA,NA,"0","Associació-Desconeguda","Guinea López, Emilio","1953","Geografia botánica de Santander."," Publicaciones diputación provincial de Santander. 412","      ?","No forest",-3.924415113,43.39322181,"4 - UTM10x10 + Centroid",64
"Q-P08150",-0.00335090175802757,-0.0555370922989455,"1","V35",8,208150,145,NA,"29TNF35","29TNF3853",6398,40,"Miradouro do Garajau","PT","ATL_COAST","N_DUNES",NA,"",NA,1,"5639","Polycarpo tetraphylli-Coronopodetum squamati","Costa, J.C.; Capelo, J.; Jardim, R.; Sequeira, M.; Espírito-Santo, D.; Lousã, M. ; Fontinha, S.; Aguiar, C. & Rivas-Martínez, S.","2004","Catálogo sintaxonómico e florístico das comunidades vegetais da Madeira e Porto Santo In A paisagem vegetal da Ilha da Madeira","Quercetea, 6:"," V35   ","No forest",-8.555662357,41.10094791,"3 - UTM10x10 + Elevation",40
"Q-P08170",0.0299702765246055,-0.151572069741741,"12","V32",5,208170,145,11357,"29TNF35","29TNF3853",6399,350,"Miradouro da Fajã dos Padres","PT","ATL_COAST","N_DUNES",NA,"S",NA,2,"5630","Chenopodio muralis-Malvetum parviflorae","Costa, J.C.; Capelo, J.; Jardim, R.; Sequeira, M.; Espírito-Santo, D.; Lousã, M. ; Fontinha, S.; Aguiar, C. & Rivas-Martínez, S.","2004","Catálogo sintaxonómico e florístico das comunidades vegetais da Madeira e Porto Santo In A paisagem vegetal da Ilha da Madeira","Quercetea, 6:"," V32   ","No forest",-8.583023967,41.14560961,"4 - UTM10x10 + Centroid",350
"Q-P08361",0.0299702765246055,-0.151572069741741,"12","V32",5,208361,145,11357,"29TNF35","29TNF3853",6412,350,"Miradouro da Fajã dos Padres","PT","ATL_COAST","N_DUNES",NA,"S",NA,2,"5630","Chenopodio muralis-Malvetum parviflorae","Espírito-Santo, M.D.; Costa, J.C.; Jardim, R. & Sequeira, M.","2003","2. Vegetação da Madeira VI: comunidades nitrófilas dos campos agrícolas, dos pousios e das suas margens. In Notas do Herbário do Estação Florestal Nacional (LISFA): Fasc. XVIII"," Silva Lusitanita 11(2):"," V32   ","No forest",-8.583023967,41.14560961,"4 - UTM10x10 + Centroid",350
"Q-P08540",0.0141925953178482,-0.0596866275770997,"19","?",5,208540,90,10522,"30TUN75","",6446,1080,"San Martin de los Herreros","ES","ATL_COAST","N_DUNES",30,"",NA,8,"2010","Glycerio declinatae-Oenanthetum crocatae","García González, M.E.","1990","Flora y vegetación de la sierra del Brezo y de la comarca de la Peña (Palencia)","Tesis Doct.","      ?","No forest",-4.582745637,42.8958167,"3 - UTM10x10 + Elevation",1080
"Q-P08542",0.0893571922294715,-0.176877169198786,"19","V39",11,208542,91,8335,"30TUN74","",6448,1080,"Ventanilla","ES","ATL_COAST","N_DUNES",70,"",NA,12,"2010","Glycerio declinatae-Oenanthetum crocatae","García González, M.E.","1990","Flora y vegetación de la sierra del Brezo y de la comarca de la Peña (Palencia)","Tesis Doct."," V39   ","No forest",-4.475347302,42.8090015,"3 - UTM10x10 + Elevation",1080
"Q-P08687",-0.0220958313421606,0.00252137425500554,"14","V32",5,208687,86,11634,"30TUN65","",6843,1160,"Santibañez de Resoba","ES","ATL_COAST","N_DUNES",100,"",NA,15,"L204","Alliarion petiolatae","García González, M.E.","1990","Flora y vegetación de la sierra del Brezo y de la comarca de la Peña (Palencia)","Tesis Doct."," V32   ","No forest",-4.602567992,42.90454586,"3 - UTM10x10 + Elevation",1160
"Q-P08735",-0.02601769974289,-0.037684926454104,"6","V15",4,208735,91,8632,"30TUN74","",6633,1090,"Cantoral de la Peña","ES","ATL_COAST","N_DUNES",100,"",NA,40,"2890","Centaureo cyani-Raphanetum microcarpae","García González, M.E.","1990","Flora y vegetación de la sierra del Brezo y de la comarca de la Peña (Palencia)","Tesis Doct."," V15   ","No forest",-4.490192325,42.81601335,"3 - UTM10x10 + Elevation",1090
"Q-P08736",-0.020156757431701,-0.0444127973128783,"6","V15",4,208736,91,8826,"30TUN74","",6634,1040,"Cantoral de la Peña","ES","ATL_COAST","N_DUNES",100,"",NA,40,"2890","Centaureo cyani-Raphanetum microcarpae","García González, M.E.","1990","Flora y vegetación de la sierra del Brezo y de la comarca de la Peña (Palencia)","Tesis Doct."," V15   ","No forest",-4.509713355,42.81395656,"3 - UTM10x10 + Elevation",1040
"Q-P08737",-0.0225514491805451,-0.0332118182260687,"6","V15",4,208737,92,9861,"30TUN64","",6635,1120,"Pisón de Castrejón","ES","ATL_COAST","N_DUNES",80,"",NA,40,"2890","Centaureo cyani-Raphanetum microcarpae","García González, M.E.","1990","Flora y vegetación de la sierra del Brezo y de la comarca de la Peña (Palencia)","Tesis Doct."," V15   ","No forest",-4.675998898,42.81164292,"3 - UTM10x10 + Elevation",1120
"Q-P08738",-0.00901590227529178,-0.0574570039422762,"6","V15",4,208738,90,8902,"30TUN74","",6636,1110,"Arroyo de Candenosa","ES","ATL_COAST","N_DUNES",40,"",NA,40,"2890","Centaureo cyani-Raphanetum microcarpae","García González, M.E.","1990","Flora y vegetación de la sierra del Brezo y de la comarca de la Peña (Palencia)","Tesis Doct."," V15   ","No forest",-4.504996992,42.82122277,"3 - UTM10x10 + Elevation",1110
"Q-P08739",0.0079542412006442,-0.101122420771985,"6","V15",4,208739,72,10615,"30TUN55","",6637,1020,"Camporredondo de Alba","ES","ATL_COAST","N_DUNES",50,"",NA,80,"2890","Centaureo cyani-Raphanetum microcarpae","García González, M.E.","1990","Flora y vegetación de la sierra del Brezo y de la comarca de la Peña (Palencia)","Tesis Doct."," V15   ","No forest",-4.77611585,42.9334869,"4 - UTM10x10 + Centroid",1020
"Q-P08740",-0.0117242255851242,-0.0138596372864728,"14","V15",4,208740,70,9161,"30TUN74","",6638,970,"Cervera de Pisuerga","ES","ATL_COAST","N_DUNES",100,"",NA,20,"2890","Centaureo cyani-Raphanetum microcarpae","García González, M.E.","1990","Flora y vegetación de la sierra del Brezo y de la comarca de la Peña (Palencia)","Tesis Doct."," V15   ","No forest",-4.528495991,42.84729103,"4 - UTM10x10 + Centroid",970
"Q-P08741",-0.0135624166065474,-0.0510446786199099,"6","V15",4,208741,91,11860,"30TUN64","",6639,1130,"Castrejón de la Peña","ES","ATL_COAST","N_DUNES",50,"",NA,20,"2890","Centaureo cyani-Raphanetum microcarpae","García González, M.E.","1990","Flora y vegetación de la sierra del Brezo y de la comarca de la Peña (Palencia)","Tesis Doct."," V15   ","No forest",-4.61429613,42.88457007,"3 - UTM10x10 + Elevation",1130
"Q-P08742",-0.0117833263067362,-0.0118098545575781,"14","V37",9,208742,92,9527,"30TUN64","",6640,1120,"Castrejón de la Peña","ES","ATL_COAST","N_DUNES",100,"",NA,20,"753","Sisymbrio officinalis-Hordeetum murini","García González, M.E.","1990","Flora y vegetación de la sierra del Brezo y de la comarca de la Peña (Palencia)","Tesis Doct."," V37   ","No forest",-4.646560297,42.80846808,"3 - UTM10x10 + Elevation",1120
"Q-P08743",-0.0110884939374207,-0.00944644809506467,"14","V37",9,208743,93,10479,"30TUN54","",6641,1100,"Santibañez de la Peña","ES","ATL_COAST","N_DUNES",100,"",NA,12,"753","Sisymbrio officinalis-Hordeetum murini","García González, M.E.","1990","Flora y vegetación de la sierra del Brezo y de la comarca de la Peña (Palencia)","Tesis Doct."," V37   ","No forest",-4.741715289,42.79985585,"3 - UTM10x10 + Elevation",1100
"Q-P08744",-0.00912386404899335,-0.00850471254628593,"14","V37",9,208744,88,11599,"30TUN44","",6612,1200,"Velilla del rio Carrión","ES","ATL_COAST","N_DUNES",100,"",NA,18,"753","Sisymbrio officinalis-Hordeetum murini","García González, M.E.","1990","Flora y vegetación de la sierra del Brezo y de la comarca de la Peña (Palencia)","Tesis Doct."," V37   ","No forest",-4.946753488,42.86499029,"3 - UTM10x10 + Elevation",1200
"Q-P08747",0.00339872867120858,0.00321060730416289,"14","V",11,208747,91,9134,"30TUN74","",6643,1000,"Cervera de Pisuerga","ES","ATL_COAST","N_DUNES",100,"",NA,20,"856","Urtico dioicae-Sambucetum ebuli","García González, M.E.","1990","Flora y vegetación de la sierra del Brezo y de la comarca de la Peña (Palencia)","Tesis Doct."," V     ","No forest",-4.504036138,42.88246998,"3 - UTM10x10 + Elevation",1000
"Q-P08750",-0.00246719149238031,0.00508478671077606,"14","V39",11,208750,90,9080,"30TUN74","",6646,1000,"Cervera de Pisuerga","ES","ATL_COAST","N_DUNES",100,"S",10,40,"742","Galio aparines-Conietum maculati","García González, M.E.","1990","Flora y vegetación de la sierra del Brezo y de la comarca de la Peña (Palencia)","Tesis Doct."," V39   ","No forest",-4.514005163,42.88954259,"3 - UTM10x10 + Elevation",1000
"Q-P08751",-0.00260972558883732,0.0103306198809244,"14","V39",11,208751,90,8353,"30TUN75","",6647,1070,"San Martín de los Herreros","ES","ATL_COAST","N_DUNES",80,"",NA,12,"742","Galio aparines-Conietum maculati","García González, M.E.","1990","Flora y vegetación de la sierra del Brezo y de la comarca de la Peña (Palencia)","Tesis Doct."," V39   ","No forest",-4.534039347,42.90728585,"3 - UTM10x10 + Elevation",1070
"Q-P08752",-0.0139049855078118,0.0142604126524383,"15","V39",11,208752,81,10644,"30TUN65","",6648,1300,"Triollo","ES","ATL_COAST","N_DUNES",90,"",NA,20,"3907","Geranio robertiani-Cariolophetum sempervirentis","García González, M.E.","1990","Flora y vegetación de la sierra del Brezo y de la comarca de la Peña (Palencia)","Tesis Doct."," V39   ","No forest",-4.67882657,42.91605961,"3 - UTM10x10 + Elevation",1300
"Q-P08754",-0.0258478228029304,0.00429070940041165,"20","V38",10,208754,84,9829,"30TUN64","",6650,1250,"Fuente Colorada","ES","ATL_COAST","N_DUNES",40,"N",5,20,"2268a,,,,,GGM3","","","","",""," V38   ","No forest",-4.666943542,42.83879034,"3 - UTM10x10 + Elevation",1250
"Q-P08755",-0.0199895897500011,0.00512351971538139,"20","V38",10,208755,80,9366,"30TUN55","",6651,1240,"Camporredondo de Alba","ES","ATL_COAST","N_DUNES",70,"",NA,70,"2268c,,,,,GGM3","","","","",""," V38   ","No forest",-4.749295633,42.89519337,"3 - UTM10x10 + Elevation",1240
"Q-P08756",-0.0281473260204338,0.00764669505971349,"20","V38",10,208756,78,10643,"30TUN64","",6652,1330,"Brañosera","ES","ATL_COAST","N_DUNES",60,"N",5,350,"2268c,,,,,GGM3","","","","",""," V38   ","No forest",-4.677118412,42.85304978,"3 - UTM10x10 + Elevation",1330
"Q-P08758",-0.0196506864482831,0.00318647392089066,"20","V38",10,208758,91,9584,"30TUN64","",6653,1130,"Traspeña de la Peña","ES","ATL_COAST","N_DUNES",80,"",NA,100,"2165d","Carduo carpetani-Onopordetum acanthii","García González, M.E.","1990","Flora y vegetación de la sierra del Brezo y de la comarca de la Peña (Palencia)","Tesis Doct."," V38   ","No forest",-4.66851798,42.80634914,"3 - UTM10x10 + Elevation",1130
"Q-P08760",-0.0214051717392841,0.00979289806149086,"20","V38",10,208760,89,9763,"30TUN74","",6654,1000,"Cervera de Pisuerga","ES","ATL_COAST","N_DUNES",80,"",NA,50,"6273","Comunidad de Cirsium richterianum","García González, M.E.","1990","Flora y vegetación de la sierra del Brezo y de la comarca de la Peña (Palencia)","Tesis Doct."," V38   ","No forest",-4.498878138,42.87173158,"3 - UTM10x10 + Elevation",1000
"Q-P08761",-0.0204179684788386,0.00759610172307268,"20","V38",10,208761,91,10518,"30TUN74","",6655,1050,"Embalse de Ruesga","ES","ATL_COAST","N_DUNES",80,"",NA,40,"6273","Comunidad de Cirsium richterianum","García González, M.E.","1990","Flora y vegetación de la sierra del Brezo y de la comarca de la Peña (Palencia)","Tesis Doct."," V38   ","No forest",-4.550416473,42.87644814,"3 - UTM10x10 + Elevation",1050
"Q-P08762",-0.0239327912003645,0.0107554880211332,"20","V38",10,208762,90,8858,"30TUN75","",6656,1070,"Ermita de San Roque","ES","ATL_COAST","N_DUNES",80,"",NA,20,"6273","Comunidad de Cirsium richterianum","García González, M.E.","1990","Flora y vegetación de la sierra del Brezo y de la comarca de la Peña (Palencia)","Tesis Doct."," V38   ","No forest",-4.543611372,42.89815216,"3 - UTM10x10 + Elevation",1070
"Q-P08763",-0.016209088101259,0.0101786062309416,"20","V38",10,208763,70,9161,"30TUN74","",6657,970,"Cervera de Pisuerga","ES","ATL_COAST","N_DUNES",60,"",NA,10,"6273","Comunidad de Cirsium richterianum","García González, M.E.","1990","Flora y vegetación de la sierra del Brezo y de la comarca de la Peña (Palencia)","Tesis Doct."," V38   ","No forest",-4.528495991,42.84729103,"4 - UTM10x10 + Centroid",970
"Q-P08764",-0.0193166603019328,-0.000123335186719475,"20","V38",10,208764,89,9449,"30TUN74","",6658,1100,"Arroyo de Candenosa","ES","ATL_COAST","N_DUNES",80,"",NA,100,"6273","Comunidad de Cirsium richterianum","García González, M.E.","1990","Flora y vegetación de la sierra del Brezo y de la comarca de la Peña (Palencia)","Tesis Doct."," V38   ","No forest",-4.527275081,42.83173387,"3 - UTM10x10 + Elevation",1100
"Q-P08765",-0.0183088576614874,0.00431844611680221,"20","V38",10,208765,92,10186,"30TUN64","",6659,1080,"Cubillo de Castrejón","ES","ATL_COAST","N_DUNES",80,"",NA,100,"6273","Comunidad de Cirsium richterianum","García González, M.E.","1990","Flora y vegetación de la sierra del Brezo y de la comarca de la Peña (Palencia)","Tesis Doct."," V38   ","No forest",-4.69316451,42.81319133,"3 - UTM10x10 + Elevation",1080
"Q-P08766",-0.0256482379701287,0.0117313483463751,"20","V38",10,208766,92,9494,"30TUN64","",6660,1120,"Traspeña de la Peña","ES","ATL_COAST","N_DUNES",80,"",NA,50,"6273","Comunidad de Cirsium richterianum","García González, M.E.","1990","Flora y vegetación de la sierra del Brezo y de la comarca de la Peña (Palencia)","Tesis Doct."," V38   ","No forest",-4.648957603,42.80663255,"3 - UTM10x10 + Elevation",1120
"Q-P08767",-0.0180772181338403,0.0080882254276291,"20","V38",10,208767,92,9586,"30TUN64","",6661,1120,"Tarilonte de la Peña","ES","ATL_COAST","N_DUNES",100,"",NA,40,"6273","Comunidad de Cirsium richterianum","García González, M.E.","1990","Flora y vegetación de la sierra del Brezo y de la comarca de la Peña (Palencia)","Tesis Doct."," V38   ","No forest",-4.668372809,42.80094819,"3 - UTM10x10 + Elevation",1120
"Q-P08768",-0.021919724786873,0.0118474178243818,"20","V38",10,208768,88,9395,"30TUN74","",6662,1020,"Embalse de Ruesga","ES","ATL_COAST","N_DUNES",80,"",NA,60,"6273","Comunidad de Cirsium richterianum","García González, M.E.","1990","Flora y vegetación de la sierra del Brezo y de la comarca de la Peña (Palencia)","Tesis Doct."," V38   ","No forest",-4.491578057,42.87362795,"3 - UTM10x10 + Elevation",1020
"Q-P08769",-0.00569937663267886,-0.0571523163747452,"1","V35",8,208769,91,10160,"30TUN74","",6663,1030,"Cervera de Pisuerga","ES","ATL_COAST","N_DUNES",40,"",NA,1,"2873a","Polygono-Matricarietum matricarioidis","García González, M.E.","1990","Flora y vegetación de la sierra del Brezo y de la comarca de la Peña (Palencia)","Tesis Doct."," V35   ","No forest",-4.575170475,42.88691619,"3 - UTM10x10 + Elevation",1030
"Q-P08770",0.000477757915103655,-0.0606339708910274,"1","V35",8,208770,81,9760,"30TUN55","",6664,1240,"Camporredondo de Alba","ES","ATL_COAST","N_DUNES",80,"",NA,8,"2873a","Polygono-Matricarietum matricarioidis","García González, M.E.","1990","Flora y vegetación de la sierra del Brezo y de la comarca de la Peña (Palencia)","Tesis Doct."," V35   ","No forest",-4.761486489,42.8932054,"3 - UTM10x10 + Elevation",1240
"Q-P08771",-0.011562257348998,-0.0387800199606129,"1","V35",8,208771,77,9288,"30TUN65","",6665,1300,"Triollo","ES","ATL_COAST","N_DUNES",60,"",NA,4,"2873a","Polygono-Matricarietum matricarioidis","García González, M.E.","1990","Flora y vegetación de la sierra del Brezo y de la comarca de la Peña (Palencia)","Tesis Doct."," V35   ","No forest",-4.609727536,42.8972414,"3 - UTM10x10 + Elevation",1300
"Q-P08772",-0.0106033291432199,-0.0479263751008393,"1","V35",8,208772,92,10201,"30TUN74","",6666,1040,"Cantoral de la Peña","ES","ATL_COAST","N_DUNES",30,"",NA,10,"2873a","Polygono-Matricarietum matricarioidis","García González, M.E.","1990","Flora y vegetación de la sierra del Brezo y de la comarca de la Peña (Palencia)","Tesis Doct."," V35   ","No forest",-4.550506646,42.88004893,"3 - UTM10x10 + Elevation",1040
"Q-P08773",-0.0118175940110456,-0.0492728206254551,"1","V35",8,208773,81,12248,"30TUN54","",6667,1330,"Valcovero","ES","ATL_COAST","N_DUNES",40,"",NA,2,"2873a","Polygono-Matricarietum matricarioidis","García González, M.E.","1990","Flora y vegetación de la sierra del Brezo y de la comarca de la Peña (Palencia)","Tesis Doct."," V35   ","No forest",-4.805345737,42.88531803,"3 - UTM10x10 + Elevation",1330
"Q-P08774",-0.0135086644211212,-0.0551242104201404,"1","V35",8,208774,92,10302,"30TUN74","",6642,990,"Cervera de Pisuerga","ES","ATL_COAST","N_DUNES",60,"",NA,5,"2873b","Polygono-Matricarietum matricarioidis","García González, M.E.","1990","Flora y vegetación de la sierra del Brezo y de la comarca de la Peña (Palencia)","Tesis Doct."," V35   ","No forest",-4.518195682,42.86067093,"3 - UTM10x10 + Elevation",990
"Q-P09152",-0.00702010837320854,0.00440180004915747,"15","V39",11,209152,98,12204,"29TNG75","29TNG7055",6900,1030,"Melgaco, Castro Laboreiro, Coriscadas","PT","ATL_COAST","N_DUNES",NA,"",NA,NA,"6323","Geranio lusitanici-Scrophularietum herminii","Honrado, J.; Alves, P.; Lomba, A.; Rocha, I.; Torres, J.; Ortiz, S. & Barreto Caldas, F.","2004","A new association of perennial nitrophilous vegetation from North-Western Iberian Peninsula.","Acta Botanica Gallica vol. 151(4):"," V39   ","No forest",-8.040051389,42.06645631,"3 - UTM10x10 + Elevation",1030
"Q-P09153",0.00256078617448238,-0.00108035515595994,"15","V",11,209153,114,12455,"29TNG73","29TNG7232",6901,1120,"Melgaço, Seara","PT","ATL_COAST","N_DUNES",NA,"",NA,NA,"6323","Geranio lusitanici-Scrophularietum herminii","Honrado, J.; Alves, P.; Lomba, A.; Rocha, I.; Torres, J.; Ortiz, S. & Barreto Caldas, F.","2004","A new association of perennial nitrophilous vegetation from North-Western Iberian Peninsula.","Acta Botanica Gallica vol. 151(4):"," V     ","No forest",-8.125972742,41.84117573,"2 - UTM1x1 + Centroid",1120
"Q-P09154",-0.00562178051645948,0.00483361236701252,"15","V38",10,209154,94,12836,"29TNG75","29TNG7154",6902,1050,"Melgaço, Teso","PT","ATL_COAST","N_DUNES",NA,"",NA,NA,"6323","Geranio lusitanici-Scrophularietum herminii","Honrado, J.; Alves, P.; Lomba, A.; Rocha, I.; Torres, J.; Ortiz, S. & Barreto Caldas, F.","2004","A new association of perennial nitrophilous vegetation from North-Western Iberian Peninsula.","Acta Botanica Gallica vol. 151(4):"," V38   ","No forest",-8.142281322,42.04570422,"3 - UTM10x10 + Elevation",1050
"Q-P09155",0.0012344438801091,-0.0216257907149282,"15","V38",10,209155,102,14368,"29TNG75","29TNG7051",6903,990,"Melgaço, Curveira","PT","ATL_COAST","N_DUNES",NA,"",NA,NA,"6323","Geranio lusitanici-Scrophularietum herminii","Honrado, J.; Alves, P.; Lomba, A.; Rocha, I.; Torres, J.; Ortiz, S. & Barreto Caldas, F.","2004","A new association of perennial nitrophilous vegetation from North-Western Iberian Peninsula.","Acta Botanica Gallica vol. 151(4):"," V38   ","No forest",-8.062724337,42.07805993,"3 - UTM10x10 + Elevation",990
"Q-P09156",-0.000576040322707999,0.00659543555601783,"14","V39",11,209156,110,11074,"29TNG94","29TNG9140",6904,850,"Montalegre, Tourém","PT","ATL_COAST","N_DUNES",NA,"",NA,NA,"6323","Geranio lusitanici-Scrophularietum herminii","Honrado, J.; Alves, P.; Lomba, A.; Rocha, I.; Torres, J.; Ortiz, S. & Barreto Caldas, F.","2004","A new association of perennial nitrophilous vegetation from North-Western Iberian Peninsula.","Acta Botanica Gallica vol. 151(4):"," V39   ","No forest",-7.906153316,41.9282218,"3 - UTM10x10 + Elevation",850
"Q-P09157",-0.00360932840801659,0.00938115439636844,"15","V39",11,209157,103,11097,"29TNG92","29TNG9329",6905,980,"Montalegre, SezelheStª Luzia,","PT","ATL_COAST","N_DUNES",NA,"",NA,NA,"6323","Geranio lusitanici-Scrophularietum herminii","Honrado, J.; Alves, P.; Lomba, A.; Rocha, I.; Torres, J.; Ortiz, S. & Barreto Caldas, F.","2004","A new association of perennial nitrophilous vegetation from North-Western Iberian Peninsula.","Acta Botanica Gallica vol. 151(4):"," V39   ","No forest",-7.890158938,41.81366373,"3 - UTM10x10 + Elevation",980
"Q-P09159",-0.00745200182350433,0.00944212919439691,"15","V39",11,209159,129,11633,"29TNF74","29TNF7945",6907,550,"Cinfaes, Ferreiros de Tendais","PT","ATL_COAST","N_DUNES",NA,"",NA,NA,"6323","Geranio lusitanici-Scrophularietum herminii","Honrado, J.; Alves, P.; Lomba, A.; Rocha, I.; Torres, J.; Ortiz, S. & Barreto Caldas, F.","2004","A new association of perennial nitrophilous vegetation from North-Western Iberian Peninsula.","Acta Botanica Gallica vol. 151(4):"," V39   ","No forest",-8.109776323,41.06042424,"3 - UTM10x10 + Elevation",550
"Q-P09160",-0.00765313262718487,0.00285872056426828,"15","V38",10,209160,103,12019,"29TNG75","29TNG7053",6908,1000,"Melgaço, between Cainheiras and Casteo Laboreiro","PT","ATL_COAST","N_DUNES",NA,"",NA,NA,"6323","Geranio lusitanici-Scrophularietum herminii","Honrado, J.; Alves, P.; Lomba, A.; Rocha, I.; Torres, J.; Ortiz, S. & Barreto Caldas, F.","2004","A new association of perennial nitrophilous vegetation from North-Western Iberian Peninsula.","Acta Botanica Gallica vol. 151(4):"," V38   ","No forest",-8.043883733,42.08429349,"3 - UTM10x10 + Elevation",1000
"Q-P09505",0.023305642156086,0.0125201441319548,"16","V38",10,209505,149,13973,"29TNG12","29TNG1123",6382,30,"VIANA DO CASTELO: Afife","PT","ATL_COAST","N_DUNES",NA,"",NA,NA,"6421a","Echio rosulati-Picridetum echioisia","Honrado, J.; Alves, P.; Nepomuceno, H. & Barreto Caldas, F.","2002","XXXIII: Ten new syntaxa from the Miniensean biogeographic subsector (northwestern Portugal). In. Notas do Herbário da Estação Florestal Nacional (LISFA): Fasc. XVI","Silva Lusitana 10(2):"," V38   ","No forest",-8.843430513,41.81580832,"3 - UTM10x10 + Elevation",30
"Q-P09506",0.00664640689698434,0.01154084734342,"16","V38",10,209506,142,13453,"29TNG50","29TNG5102",6353,190,"BRAGA: Gualtar","PT","ATL_COAST","N_DUNES",NA,"",NA,NA,"6421a","Echio rosulati-Picridetum echioisia","Honrado, J.; Alves, P.; Nepomuceno, H. & Barreto Caldas, F.","2002","XXXIII: Ten new syntaxa from the Miniensean biogeographic subsector (northwestern Portugal). In. Notas do Herbário da Estação Florestal Nacional (LISFA): Fasc. XVI","Silva Lusitana 10(2):"," V38   ","No forest",-8.290880571,41.59419853,"3 - UTM10x10 + Elevation",190
"Q-P09507",-0.00533487389905971,0.0154193341396224,"16","V38",10,209507,142,13067,"29TNG61","29TNG6814",6383,170,"TERRAS DO BOURO: Vilar da Veiga","PT","ATL_COAST","N_DUNES",NA,"",NA,NA,"6421a","Echio rosulati-Picridetum echioisia","Honrado, J.; Alves, P.; Nepomuceno, H. & Barreto Caldas, F.","2002","XXXIII: Ten new syntaxa from the Miniensean biogeographic subsector (northwestern Portugal). In. Notas do Herbário da Estação Florestal Nacional (LISFA): Fasc. XVI","Silva Lusitana 10(2):"," V38   ","No forest",-8.19947904,41.65059694,"3 - UTM10x10 + Elevation",170
"Q-P09508",0.0246076268426778,0.00683579914270294,"16","V38",10,209508,152,13779,"29TNG22","29TNG2520",6384,10,"PONTE DE LIMA: Between Vila Mou and Lanheses","PT","ATL_COAST","N_DUNES",NA,"",NA,NA,"6421a","Echio rosulati-Picridetum echioisia","Honrado, J.; Alves, P.; Nepomuceno, H. & Barreto Caldas, F.","2002","XXXIII: Ten new syntaxa from the Miniensean biogeographic subsector (northwestern Portugal). In. Notas do Herbário da Estação Florestal Nacional (LISFA): Fasc. XVI","Silva Lusitana 10(2):"," V38   ","No forest",-8.642217634,41.77188901,"3 - UTM10x10 + Elevation",10
"Q-P09509",0.0146897357577887,-0.0137227243446504,"16","V38",10,209509,147,14014,"29TNG12","29TNG1122",6385,10,"VIANA DO CASTELO: Afife","PT","ATL_COAST","N_DUNES",NA,"",NA,NA,"6421a","Echio rosulati-Picridetum echioisia","Honrado, J.; Alves, P.; Nepomuceno, H. & Barreto Caldas, F.","2002","XXXIII: Ten new syntaxa from the Miniensean biogeographic subsector (northwestern Portugal). In. Notas do Herbário da Estação Florestal Nacional (LISFA): Fasc. XVI","Silva Lusitana 10(2):"," V38   ","No forest",-8.86443276,41.78232801,"3 - UTM10x10 + Elevation",10
"Q-P09510",0.00918254375441344,0.0283930091586256,"16","V38",10,209510,144,11513,"29TNF35","29TNF3056",6386,70,"PORTO: Campo Alegre","PT","ATL_COAST","N_DUNES",NA,"",NA,NA,"6421b","Echio rosulati-Picridetum echioisia","Honrado, J.; Alves, P.; Nepomuceno, H. & Barreto Caldas, F.","2002","XXXIII: Ten new syntaxa from the Miniensean biogeographic subsector (northwestern Portugal). In. Notas do Herbário da Estação Florestal Nacional (LISFA): Fasc. XVI","Silva Lusitana 10(2):"," V38   ","No forest",-8.559760071,41.14936218,"3 - UTM10x10 + Elevation",70
"Q-P09511",0.0031503526208006,0.0364877535559731,"16","V38",10,209511,141,11529,"29TNF35","29TNF3156",6387,80,"PORTO: Bom Sucesso","PT","ATL_COAST","N_DUNES",NA,"",NA,NA,"6421b","Echio rosulati-Picridetum echioisia","Honrado, J.; Alves, P.; Nepomuceno, H. & Barreto Caldas, F.","2002","XXXIII: Ten new syntaxa from the Miniensean biogeographic subsector (northwestern Portugal). In. Notas do Herbário da Estação Florestal Nacional (LISFA): Fasc. XVI","Silva Lusitana 10(2):"," V38   ","No forest",-8.625035142,41.1605866,"3 - UTM10x10 + Elevation",80
"Q-P09512",0.00847336150401889,0.0360315899190053,"16","V38",10,209512,148,11951,"29TNF36","29TNF3366",6388,70,"MAIA: Devesa","PT","ATL_COAST","N_DUNES",NA,"",NA,NA,"6421b","Echio rosulati-Picridetum echioisia","Honrado, J.; Alves, P.; Nepomuceno, H. & Barreto Caldas, F.","2002","XXXIII: Ten new syntaxa from the Miniensean biogeographic subsector (northwestern Portugal). In. Notas do Herbário da Estação Florestal Nacional (LISFA): Fasc. XVI","Silva Lusitana 10(2):"," V38   ","No forest",-8.637550131,41.22298792,"3 - UTM10x10 + Elevation",70
"Q-P09513",0.0164386339792194,0.0191150281717856,"16","V38",10,209513,150,16050,"29TNG35","29TNG3056",6389,70,"PORTO: Campo Alegre","PT","ATL_COAST","N_DUNES",NA,"",NA,NA,"6421b","Echio rosulati-Picridetum echioisia","Honrado, J.; Alves, P.; Nepomuceno, H. & Barreto Caldas, F.","2002","XXXIII: Ten new syntaxa from the Miniensean biogeographic subsector (northwestern Portugal). In. Notas do Herbário da Estação Florestal Nacional (LISFA): Fasc. XVI","Silva Lusitana 10(2):"," V38   ","No forest",-8.631537195,42.06048304,"2 - UTM1x1 + Centroid",70
"Q-P09810",0.186016246856287,-0.101112256768048,"1","V",5,209810,109,10514,"29TPG83","29TPG8535",6943,580,"Bragança: Meixedo, Oleirinhos, junto ao rio Sabor","PT","ATL_COAST","N_DUNES",70,"",NA,4,"2151","Bidenti tripartitae-Polygonetum lapathifolii","Gonçalves Aguiar, C.F.","2000","Flora e vegetação da Serra de Nogueira e do Parque Natural de Montesinho","Universidade Técnica de Lisboa. Inst. Superior de Agronomia. pp."," V     ","No forest",-6.80007697,41.85646934,"4 - UTM10x10 + Centroid",580
"Q-P09913",-0.0730183594018339,0.236219289457816,"19","V39",11,209913,101,10144,"29TPG72","29TPG7223",7032,980,"Bragança: Zoio","PT","ATL_COAST","N_DUNES",70,"SW",90,4,"7006","Comunidad de Sedum hirsutum y Umbilicus rupestris","Gonçalves Aguiar, C.F.","2000","Flora e vegetação da Serra de Nogueira e do Parque Natural de Montesinho","Universidade Técnica de Lisboa. Inst. Superior de Agronomia. pp."," V39   ","No forest",-6.871047478,41.75895828,"3 - UTM10x10 + Elevation",980
"Q-P09914",-0.0782498534679035,0.256866298778629,"19","?",5,209914,110,9890,"29TPG62","29TPG6928",7033,820,"Vinhais: Ousilhão","PT","ATL_COAST","N_DUNES",50,"N",90,4,"7006","Comunidad de Sedum hirsutum y Umbilicus rupestris","Gonçalves Aguiar, C.F.","2000","Flora e vegetação da Serra de Nogueira e do Parque Natural de Montesinho","Universidade Técnica de Lisboa. Inst. Superior de Agronomia. pp.","      ?","No forest",-6.964876574,41.75935558,"3 - UTM10x10 + Elevation",820
"Q-P09917",-0.0547607169054694,0.183839021664355,"15","V",1,209917,112,10229,"29TPG94","29TPG9745",7036,750,"Bragança: rio de Onor","PT","ATL_COAST","N_DUNES",30,"SE",90,4,"770","Cymbalarietum muralis","Gonçalves Aguiar, C.F.","2000","Flora e vegetação da Serra de Nogueira e do Parque Natural de Montesinho","Universidade Técnica de Lisboa. Inst. Superior de Agronomia. pp."," V     ","No forest",-6.614058215,41.93663371,"1 - UTM1x1 + Elevation",750
"Q-P09918",-0.0932876167335404,0.349851042288416,"13","?",1,209918,106,12479,"29TPG74","29TPG7142",7037,800,"Vinhais: Dine","PT","ATL_COAST","N_DUNES",70,"W",90,3,"770","Cymbalarietum muralis","Gonçalves Aguiar, C.F.","2000","Flora e vegetação da Serra de Nogueira e do Parque Natural de Montesinho","Universidade Técnica de Lisboa. Inst. Superior de Agronomia. pp.","      ?","No forest",-6.902707464,41.96319006,"3 - UTM10x10 + Elevation",800
"Q-P09919",-0.0973186224953534,0.345122335115453,"15","?",1,209919,115,10726,"29TPG63","29TPG6335",7038,830,"Vinhais: Lagarelhos","PT","ATL_COAST","N_DUNES",90,"NW",90,2,"770","Cymbalarietum muralis","Gonçalves Aguiar, C.F.","2000","Flora e vegetação da Serra de Nogueira e do Parque Natural de Montesinho","Universidade Técnica de Lisboa. Inst. Superior de Agronomia. pp.","      ?","No forest",-7.068164578,41.83317711,"3 - UTM10x10 + Elevation",830
"Q-P09920",-0.0933703320367971,0.329881258860783,"15","V",1,209920,105,10346,"29TPG72","29TPG7426",7039,840,"Bragança: Carrazedo","PT","ATL_COAST","N_DUNES",60,"NW",90,2,"770","Cymbalarietum muralis","Gonçalves Aguiar, C.F.","2000","Flora e vegetação da Serra de Nogueira e do Parque Natural de Montesinho","Universidade Técnica de Lisboa. Inst. Superior de Agronomia. pp."," V     ","No forest",-6.883145708,41.79997091,"3 - UTM10x10 + Elevation",840
"Q-P09921",-0.0799083941165451,0.279867159114502,"13","V",1,209921,109,10907,"29TPG73","29TPG7837",7040,850,"Bragança: Espinhosela","PT","ATL_COAST","N_DUNES",70,"S",90,1,"771","Parietarietum judaicae","Gonçalves Aguiar, C.F.","2000","Flora e vegetação da Serra de Nogueira e do Parque Natural de Montesinho","Universidade Técnica de Lisboa. Inst. Superior de Agronomia. pp."," V     ","No forest",-6.860724682,41.86736218,"3 - UTM10x10 + Elevation",850
"Q-P09928",-0.0477394701732147,0.131907009916095,"9","V",5,209928,117,10245,"29TPG83","29TPG8630",7044,690,"Bragança: St.ª Maria, junto ao Castelo","PT","ATL_COAST","N_DUNES",70,"SW",90,6,"7007","Comunidad de Phagnalon saxatile y Rumex induratus","Gonçalves Aguiar, C.F.","2000","Flora e vegetação da Serra de Nogueira e do Parque Natural de Montesinho","Universidade Técnica de Lisboa. Inst. Superior de Agronomia. pp."," V     ","No forest",-6.757534437,41.87439158,"3 - UTM10x10 + Elevation",690
"Q-P09946",-0.0222677761980275,0.00555318381198833,"17","V32",5,209946,114,9257,"29TPG82","29TPG8023",7062,900,"Bragança: Rebordãos, estrada do Castelo","PT","ATL_COAST","N_DUNES",90,"",NA,6,"7008","Comunidad de Carduus carpetanus","Gonçalves Aguiar, C.F.","2000","Flora e vegetação da Serra de Nogueira e do Parque Natural de Montesinho","Universidade Técnica de Lisboa. Inst. Superior de Agronomia. pp."," V32   ","No forest",-6.830072255,41.71711066,"3 - UTM10x10 + Elevation",900
"Q-P09947",-0.0300721717362749,-0.000606382069778144,"6","V38",10,209947,101,10831,"29TPG84","29TPG8741",7063,990,"Bragança: França","PT","ATL_COAST","N_DUNES",100,"",NA,8,"7008","Comunidad de Carduus carpetanus","Gonçalves Aguiar, C.F.","2000","Flora e vegetação da Serra de Nogueira e do Parque Natural de Montesinho","Universidade Técnica de Lisboa. Inst. Superior de Agronomia. pp."," V38   ","No forest",-6.7732351,41.89548738,"3 - UTM10x10 + Elevation",990
"Q-P09948",-0.0282478810606162,-0.0096689910599117,"6","V32",5,209948,109,9500,"29TPG93","29TPG9732",7064,870,"Bragança: Palácios","PT","ATL_COAST","N_DUNES",100,"S",9,10,"7008","Comunidad de Carduus carpetanus","Gonçalves Aguiar, C.F.","2000","Flora e vegetação da Serra de Nogueira e do Parque Natural de Montesinho","Universidade Técnica de Lisboa. Inst. Superior de Agronomia. pp."," V32   ","No forest",-6.611594935,41.85026448,"3 - UTM10x10 + Elevation",870
"Q-P09950",-0.0307521343218468,-0.00776342638644334,"6","V38",10,209950,109,11335,"29TPG54","29TPG5245",7066,780,"Vinhais: Vilarinho","PT","ATL_COAST","N_DUNES",90,"",NA,12,"7008","Comunidad de Carduus carpetanus","Gonçalves Aguiar, C.F.","2000","Flora e vegetação da Serra de Nogueira e do Parque Natural de Montesinho","Universidade Técnica de Lisboa. Inst. Superior de Agronomia. pp."," V38   ","No forest",-7.079603721,41.89940303,"3 - UTM10x10 + Elevation",780
"Q-P09951",-0.0329720260893248,0.0200749468005913,"7","V33",6,209951,112,9458,"29TPG83","29TPG8936",7067,680,"Bragança: Baçal","PT","ATL_COAST","N_DUNES",100,"W",54,4,"2822","Carlino corymbosae-Carthametum lanati","Gonçalves Aguiar, C.F.","2000","Flora e vegetação da Serra de Nogueira e do Parque Natural de Montesinho","Universidade Técnica de Lisboa. Inst. Superior de Agronomia. pp."," V33   ","No forest",-6.80628046,41.80254728,"3 - UTM10x10 + Elevation",680
"Q-P09952",-0.032344591511857,0.0294687834873314,"17","V33",6,209952,112,9853,"29TPG93","29TPG9536",7068,560,"Bragança: Labiados","PT","ATL_COAST","N_DUNES",100,"",NA,10,"2822","Carlino corymbosae-Carthametum lanati","Gonçalves Aguiar, C.F.","2000","Flora e vegetação da Serra de Nogueira e do Parque Natural de Montesinho","Universidade Técnica de Lisboa. Inst. Superior de Agronomia. pp."," V33   ","No forest",-6.61857634,41.83535117,"4 - UTM10x10 + Centroid",560
"Q-P09953",-0.024861098757681,0.0253582019601385,"16","V38",10,209953,114,10860,"29TPG63","29TPG6934",7069,760,"Vinhais: Vila Verde, Monte de Cabrões","PT","ATL_COAST","N_DUNES",60,"SE",36,6,"2822","Carlino corymbosae-Carthametum lanati","Gonçalves Aguiar, C.F.","2000","Flora e vegetação da Serra de Nogueira e do Parque Natural de Montesinho","Universidade Técnica de Lisboa. Inst. Superior de Agronomia. pp."," V38   ","No forest",-7.018834242,41.85292547,"3 - UTM10x10 + Elevation",760
"Q-P09954",-0.0366961513058857,0.0293559165179776,"7","V33",6,209954,112,9905,"29TPG93","29TPG9732",7042,790,"Bragança: Palácios, Passadeiros","PT","ATL_COAST","N_DUNES",100,"S",4.5,4,"2822","Carlino corymbosae-Carthametum lanati","Gonçalves Aguiar, C.F.","2000","Flora e vegetação da Serra de Nogueira e do Parque Natural de Montesinho","Universidade Técnica de Lisboa. Inst. Superior de Agronomia. pp."," V33   ","No forest",-6.607392805,41.86120262,"3 - UTM10x10 + Elevation",790
"Q-P09955",-0.00425513219109155,0.000305311672611275,"14","V32",5,209955,116,10615,"29TPG73","29TPG7533",7071,600,"Bragança: Castrelos","PT","ATL_COAST","N_DUNES",100,"",NA,2,"7009","Comunidad de Carduus pycnocephalus y Carduus tenuiflorus","Gonçalves Aguiar, C.F.","2000","Flora e vegetação da Serra de Nogueira e do Parque Natural de Montesinho","Universidade Técnica de Lisboa. Inst. Superior de Agronomia. pp."," V32   ","No forest",-6.927495113,41.85609022,"3 - UTM10x10 + Elevation",600
"Q-P09956",-0.0139987203024527,-0.00215994468510372,"14","V33",6,209956,111,9930,"29TPG82","29TPG8023",7072,880,"Bragança: Rebordãos, estrada do Castelo","PT","ATL_COAST","N_DUNES",100,"",NA,8,"7009","Comunidad de Carduus pycnocephalus y Carduus tenuiflorus","Gonçalves Aguiar, C.F.","2000","Flora e vegetação da Serra de Nogueira e do Parque Natural de Montesinho","Universidade Técnica de Lisboa. Inst. Superior de Agronomia. pp."," V33   ","No forest",-6.832596758,41.79987008,"3 - UTM10x10 + Elevation",880
"Q-P09957",-0.00750236860016462,0.00476170579825064,"14","V32",5,209957,116,10282,"29TPG83","29TPG8637",7073,640,"Bragança: Rabal","PT","ATL_COAST","N_DUNES",100,"",NA,6,"7009","Comunidad de Carduus pycnocephalus y Carduus tenuiflorus","Gonçalves Aguiar, C.F.","2000","Flora e vegetação da Serra de Nogueira e do Parque Natural de Montesinho","Universidade Técnica de Lisboa. Inst. Superior de Agronomia. pp."," V32   ","No forest",-6.761711225,41.86344897,"3 - UTM10x10 + Elevation",640
"Q-P09958",-0.00932193347220059,-0.000524457475948314,"14","V33",6,209958,116,10615,"29TPG73","29TPG7533",7074,600,"Bragança: Castrelos, ponte de Castrelos","PT","ATL_COAST","N_DUNES",100,"",NA,8,"7009","Comunidad de Carduus pycnocephalus y Carduus tenuiflorus","Gonçalves Aguiar, C.F.","2000","Flora e vegetação da Serra de Nogueira e do Parque Natural de Montesinho","Universidade Técnica de Lisboa. Inst. Superior de Agronomia. pp."," V33   ","No forest",-6.927495113,41.85609022,"3 - UTM10x10 + Elevation",600
"Q-P09959",-0.00713134032965596,-0.00509462415389494,"14","V33",6,209959,110,10397,"29TPG63","29TPG6133",7075,760,"Vinhais: Sobreiró-de-Baixo","PT","ATL_COAST","N_DUNES",100,"",NA,10,"7009","Comunidad de Carduus pycnocephalus y Carduus tenuiflorus","Gonçalves Aguiar, C.F.","2000","Flora e vegetação da Serra de Nogueira e do Parque Natural de Montesinho","Universidade Técnica de Lisboa. Inst. Superior de Agronomia. pp."," V33   ","No forest",-6.994015306,41.84118635,"3 - UTM10x10 + Elevation",760
"Q-P09960",-0.0109654605084887,-0.0037379362319282,"7","V33",6,209960,112,9853,"29TPG93","29TPG9130",7076,500,"Bragança: Gimonde","PT","ATL_COAST","N_DUNES",100,"",NA,5,"7009","Comunidad de Carduus pycnocephalus y Carduus tenuiflorus","Gonçalves Aguiar, C.F.","2000","Flora e vegetação da Serra de Nogueira e do Parque Natural de Montesinho","Universidade Técnica de Lisboa. Inst. Superior de Agronomia. pp."," V33   ","No forest",-6.61857634,41.83535117,"4 - UTM10x10 + Centroid",500
"Q-P09961",-0.00957755326259391,7.96302765638801e-05,"14","V32",5,209961,112,9853,"29TPG93","29TPG9536",7077,600,"Bragança: Labiados","PT","ATL_COAST","N_DUNES",100,"",NA,4,"7009","Comunidad de Carduus pycnocephalus y Carduus tenuiflorus","Gonçalves Aguiar, C.F.","2000","Flora e vegetação da Serra de Nogueira e do Parque Natural de Montesinho","Universidade Técnica de Lisboa. Inst. Superior de Agronomia. pp."," V32   ","No forest",-6.61857634,41.83535117,"4 - UTM10x10 + Centroid",600
"Q-P09962",-0.00516988176766281,-0.00465997522074568,"14","V32",5,209962,110,9397,"29TPG93","29TPG9832",7078,820,"Bragança: S. Julião","PT","ATL_COAST","N_DUNES",100,"",NA,8,"7009","Comunidad de Carduus pycnocephalus y Carduus tenuiflorus","Gonçalves Aguiar, C.F.","2000","Flora e vegetação da Serra de Nogueira e do Parque Natural de Montesinho","Universidade Técnica de Lisboa. Inst. Superior de Agronomia. pp."," V32   ","No forest",-6.605977199,41.83603333,"3 - UTM10x10 + Elevation",820
"Q-P09963",-0.0113438617812124,-0.00417828113822349,"7","V33",6,209963,111,9415,"29TQG03","29TQG0036",7079,900,"Bragança: Deilão","PT","ATL_COAST","N_DUNES",100,"",NA,6,"7009","Comunidad de Carduus pycnocephalus y Carduus tenuiflorus","Gonçalves Aguiar, C.F.","2000","Flora e vegetação da Serra de Nogueira e do Parque Natural de Montesinho","Universidade Técnica de Lisboa. Inst. Superior de Agronomia. pp."," V33   ","No forest",-6.589652048,41.8455503,"3 - UTM10x10 + Elevation",900
"Q-P09964",-0.00969297159900939,-0.00480888751272091,"14","V33",6,209964,117,11005,"29TPG83","29TPG8936",7080,650,"Bragança: Baçal","PT","ATL_COAST","N_DUNES",100,"",NA,16,"7009","Comunidad de Carduus pycnocephalus y Carduus tenuiflorus","Gonçalves Aguiar, C.F.","2000","Flora e vegetação da Serra de Nogueira e do Parque Natural de Montesinho","Universidade Técnica de Lisboa. Inst. Superior de Agronomia. pp."," V33   ","No forest",-6.736622917,41.88768148,"3 - UTM10x10 + Elevation",650
"Q-P09965",-0.00815023687964558,-0.00192837262946111,"14","V32",5,209965,104,11678,"29TPG74","29TPG7840",7081,850,"Bragança: Vilarinho de Cova de Lua","PT","ATL_COAST","N_DUNES",100,"",NA,8,"7009","Comunidad de Carduus pycnocephalus y Carduus tenuiflorus","Gonçalves Aguiar, C.F.","2000","Flora e vegetação da Serra de Nogueira e do Parque Natural de Montesinho","Universidade Técnica de Lisboa. Inst. Superior de Agronomia. pp."," V32   ","No forest",-6.945049791,41.94553263,"3 - UTM10x10 + Elevation",850
"Q-P09967",0.00872530442267624,0.00380285004942138,"14","V32",5,209967,109,10514,"29TPG83","29TPG8535",7082,600,"Bragança: Meixedo, estrada para o Portelo","PT","ATL_COAST","N_DUNES",100,"SW",9,16,"7010","Comunidad de Silybum marianum y Carduus tenuiflorus","Gonçalves Aguiar, C.F.","2000","Flora e vegetação da Serra de Nogueira e do Parque Natural de Montesinho","Universidade Técnica de Lisboa. Inst. Superior de Agronomia. pp."," V32   ","No forest",-6.80007697,41.85646934,"4 - UTM10x10 + Centroid",600
"Q-P09968",0.00588531727360475,-0.0035651085632612,"14","V32",5,209968,114,9867,"29TPG83","29TPG8637",7083,640,"Bragança: Rabal","PT","ATL_COAST","N_DUNES",100,"",NA,6,"7010","Comunidad de Silybum marianum y Carduus tenuiflorus","Gonçalves Aguiar, C.F.","2000","Flora e vegetação da Serra de Nogueira e do Parque Natural de Montesinho","Universidade Técnica de Lisboa. Inst. Superior de Agronomia. pp."," V32   ","No forest",-6.788335231,41.82475275,"3 - UTM10x10 + Elevation",640
"Q-P09971",-0.0431016156899338,0.0654996735445972,"8","V32",5,209971,113,9914,"29TPG83","29TPG8531",7085,680,"Bragança: Sé, Quinta do Ricafé","PT","ATL_COAST","N_DUNES",80,"SW",9,8,"5324","Alysso lusitanici-Santolinetum semidentatae","Gonçalves Aguiar, C.F.","2000","Flora e vegetação da Serra de Nogueira e do Parque Natural de Montesinho","Universidade Técnica de Lisboa. Inst. Superior de Agronomia. pp."," V32   ","No forest",-6.809002485,41.80785977,"3 - UTM10x10 + Elevation",680
"Q-P09982",-0.0043333290305661,-0.0436803644880243,"1","V35",8,209982,114,12423,"29TPG54","29TPG5047",7094,750,"Vinhais: Cisterna","PT","ATL_COAST","N_DUNES",70,"",NA,4,"4223","Matricario-Polygonetum avicularis","Gonçalves Aguiar, C.F.","2000","Flora e vegetação da Serra de Nogueira e do Parque Natural de Montesinho","Universidade Técnica de Lisboa. Inst. Superior de Agronomia. pp."," V35   ","No forest",-7.182960705,41.96578556,"2 - UTM1x1 + Centroid",750
"Q-P09983",-0.00264756765393445,-0.0543036109940662,"1","V35",8,209983,113,11070,"29TPG63","29TPG6435",7095,790,"Vinhais: rio de Fornos","PT","ATL_COAST","N_DUNES",50,"",NA,5,"4223","Matricario-Polygonetum avicularis","Gonçalves Aguiar, C.F.","2000","Flora e vegetação da Serra de Nogueira e do Parque Natural de Montesinho","Universidade Técnica de Lisboa. Inst. Superior de Agronomia. pp."," V35   ","No forest",-7.053959534,41.87510045,"3 - UTM10x10 + Elevation",790
"Q-P09984",-0.0148758248362343,-0.0476236626011953,"1","V35",8,209984,116,10615,"29TPG73","29TPG7533",7070,600,"Bragança: Castrelos","PT","ATL_COAST","N_DUNES",80,"SE",9,1,"4223","Matricario-Polygonetum avicularis","Gonçalves Aguiar, C.F.","2000","Flora e vegetação da Serra de Nogueira e do Parque Natural de Montesinho","Universidade Técnica de Lisboa. Inst. Superior de Agronomia. pp."," V35   ","No forest",-6.927495113,41.85609022,"3 - UTM10x10 + Elevation",600
"Q-P09985",-0.00968879766965439,-0.0483699644657203,"1","V35",8,209985,109,10514,"29TPG83","29TPG8637",7097,620,"Bragança: Rabal","PT","ATL_COAST","N_DUNES",40,"",NA,2,"4223","Matricario-Polygonetum avicularis","Gonçalves Aguiar, C.F.","2000","Flora e vegetação da Serra de Nogueira e do Parque Natural de Montesinho","Universidade Técnica de Lisboa. Inst. Superior de Agronomia. pp."," V35   ","No forest",-6.80007697,41.85646934,"4 - UTM10x10 + Centroid",620
"Q-P09989",-0.0174330756856511,-0.00600430485294934,"1","V34",7,209989,115,10523,"29TPG83","29TPG8637",7101,640,"Bragança: Rabal","PT","ATL_COAST","N_DUNES",60,"",NA,1,"1731","Crassulo tillaeae-Saginetum apetalae","Gonçalves Aguiar, C.F.","2000","Flora e vegetação da Serra de Nogueira e do Parque Natural de Montesinho","Universidade Técnica de Lisboa. Inst. Superior de Agronomia. pp."," V34   ","No forest",-6.766626048,41.8650886,"3 - UTM10x10 + Elevation",640
"Q-P09993",-0.0114951289157126,-0.0282281600094686,"1","V35",8,209993,116,9901,"29TPG93","29TPG9032",7105,640,"Bragança: Vale de Lamas","PT","ATL_COAST","N_DUNES",30,"",NA,3,"1731","Crassulo tillaeae-Saginetum apetalae","Gonçalves Aguiar, C.F.","2000","Flora e vegetação da Serra de Nogueira e do Parque Natural de Montesinho","Universidade Técnica de Lisboa. Inst. Superior de Agronomia. pp."," V35   ","No forest",-6.632766489,41.88381447,"3 - UTM10x10 + Elevation",640
"Q-P09995",-0.0150003107125787,-0.0172090412272149,"1","V34",7,209995,112,10173,"29TPG94","29TPG9745",7107,770,"Bragança: rio de Onor","PT","ATL_COAST","N_DUNES",50,"",NA,4,"1731","Crassulo tillaeae-Saginetum apetalae","Gonçalves Aguiar, C.F.","2000","Flora e vegetação da Serra de Nogueira e do Parque Natural de Montesinho","Universidade Técnica de Lisboa. Inst. Superior de Agronomia. pp."," V34   ","No forest",-6.613956586,41.93483594,"1 - UTM1x1 + Elevation",770
"Q-P09996",-0.0114238887158218,-0.0298079017640885,"1","V35",8,209996,113,10614,"29TPG63","29TPG6934",7108,750,"Vinhais: Vila Verde","PT","ATL_COAST","N_DUNES",70,"",NA,4,"1731","Crassulo tillaeae-Saginetum apetalae","Gonçalves Aguiar, C.F.","2000","Flora e vegetação da Serra de Nogueira e do Parque Natural de Montesinho","Universidade Técnica de Lisboa. Inst. Superior de Agronomia. pp."," V35   ","No forest",-7.056833538,41.84438384,"3 - UTM10x10 + Elevation",750
"Q-P09999",-0.0309658314648624,-0.00915003800425018,"1","V",7,209999,117,11005,"29TPG83","29TPG8936",7111,640,"Bragança: Baçal","PT","ATL_COAST","N_DUNES",60,"",NA,1,"7011","Comunidad de Spergularia purpurea y Plantago coronopus","Gonçalves Aguiar, C.F.","2000","Flora e vegetação da Serra de Nogueira e do Parque Natural de Montesinho","Universidade Técnica de Lisboa. Inst. Superior de Agronomia. pp."," V     ","No forest",-6.736622917,41.88768148,"3 - UTM10x10 + Elevation",640
"Q-P10001",-0.0228995120333091,-0.0113368898970668,"1","V32",5,210001,112,8895,"29TPG93","29TPG9733",7113,780,"Bragança: Caravela","PT","ATL_COAST","N_DUNES",60,"",NA,1,"7011","Comunidad de Spergularia purpurea y Plantago coronopus","Gonçalves Aguiar, C.F.","2000","Flora e vegetação da Serra de Nogueira e do Parque Natural de Montesinho","Universidade Técnica de Lisboa. Inst. Superior de Agronomia. pp."," V32   ","No forest",-6.604765258,41.81445954,"3 - UTM10x10 + Elevation",780
"Q-P10002",-0.0194054560344536,-0.00458557349571609,"1","V",7,210002,110,10172,"29TPG72","29TPG7529",7114,800,"Bragança: Alimonde","PT","ATL_COAST","N_DUNES",30,"",NA,1,"7011","Comunidad de Spergularia purpurea y Plantago coronopus","Gonçalves Aguiar, C.F.","2000","Flora e vegetação da Serra de Nogueira e do Parque Natural de Montesinho","Universidade Técnica de Lisboa. Inst. Superior de Agronomia. pp."," V     ","No forest",-6.891229027,41.77448393,"3 - UTM10x10 + Elevation",800
"Q-P10004",-0.0254100506077524,-0.0070388783119637,"1","V32",5,210004,113,11320,"29TPG73","29TPG7335",7116,680,"Bragança: Soeira","PT","ATL_COAST","N_DUNES",50,"",NA,1,"7011","Comunidad de Spergularia purpurea y Plantago coronopus","Gonçalves Aguiar, C.F.","2000","Flora e vegetação da Serra de Nogueira e do Parque Natural de Montesinho","Universidade Técnica de Lisboa. Inst. Superior de Agronomia. pp."," V32   ","No forest",-6.929148103,41.88304723,"3 - UTM10x10 + Elevation",680
"Q-P10005",-0.0379177994532909,0.0182217519068123,"8","V32",5,210005,115,9813,"29TPG93","29TPG9632",7117,670,"Bragança: Babe","PT","ATL_COAST","N_DUNES",80,"SE",4.5,8,"4249","Trifolio cherleri-Taeniatheretum capitis-medusae","Gonçalves Aguiar, C.F.","2000","Flora e vegetação da Serra de Nogueira e do Parque Natural de Montesinho","Universidade Técnica de Lisboa. Inst. Superior de Agronomia. pp."," V32   ","No forest",-6.627751393,41.88037126,"3 - UTM10x10 + Elevation",670
"Q-P10010",-0.0320968235923184,0.00152754510933495,"7","V32",5,210010,118,10426,"29TPG83","29TPG8630",7122,670,"Bragança: St.ª Maria-à saída para França","PT","ATL_COAST","N_DUNES",90,"S",2.5,4,"4249","Trifolio cherleri-Taeniatheretum capitis-medusae","Gonçalves Aguiar, C.F.","2000","Flora e vegetação da Serra de Nogueira e do Parque Natural de Montesinho","Universidade Técnica de Lisboa. Inst. Superior de Agronomia. pp."," V32   ","No forest",-6.757218181,41.8689991,"3 - UTM10x10 + Elevation",670
"Q-P10011",-0.0237363995202726,0.00586243956186805,"16","V32",5,210011,113,9933,"29TPG83","29TPG8637",7123,700,"Bragança: Rabal","PT","ATL_COAST","N_DUNES",90,"NE",4.5,4,"4249","Trifolio cherleri-Taeniatheretum capitis-medusae","Gonçalves Aguiar, C.F.","2000","Flora e vegetação da Serra de Nogueira e do Parque Natural de Montesinho","Universidade Técnica de Lisboa. Inst. Superior de Agronomia. pp."," V32   ","No forest",-6.799392864,41.80817847,"3 - UTM10x10 + Elevation",700
"Q-P10012",-0.0275157875957095,-0.00328128395385663,"7","V32",5,210012,115,10523,"29TPG83","29TPG8637",7124,650,"Bragança: Rabal","PT","ATL_COAST","N_DUNES",90,"",NA,4,"4249","Trifolio cherleri-Taeniatheretum capitis-medusae","Gonçalves Aguiar, C.F.","2000","Flora e vegetação da Serra de Nogueira e do Parque Natural de Montesinho","Universidade Técnica de Lisboa. Inst. Superior de Agronomia. pp."," V32   ","No forest",-6.766626048,41.8650886,"3 - UTM10x10 + Elevation",650
"Q-P10013",-0.0176573275859435,0.00925193850349637,"7","V32",5,210013,115,10426,"29TPG83","29TPG8630",7125,670,"Bragança: St.ª Maria, junto ao Castelo","PT","ATL_COAST","N_DUNES",80,"SW",45,6,"548","Medicagini rigidulae-Aegilopetum geniculatae","Gonçalves Aguiar, C.F.","2000","Flora e vegetação da Serra de Nogueira e do Parque Natural de Montesinho","Universidade Técnica de Lisboa. Inst. Superior de Agronomia. pp."," V32   ","No forest",-6.764221399,41.86516756,"3 - UTM10x10 + Elevation",670
"Q-P10015",-0.0275919302768051,0.0095831477176902,"7","V32",5,210015,114,10612,"29TPG83","29TPG8637",7126,650,"Bragança: Rabal","PT","ATL_COAST","N_DUNES",60,"",NA,30,"2181","Coincyo setigerae-Brassicetum barrelieri","Gonçalves Aguiar, C.F.","2000","Flora e vegetação da Serra de Nogueira e do Parque Natural de Montesinho","Universidade Técnica de Lisboa. Inst. Superior de Agronomia. pp."," V32   ","No forest",-6.731706991,41.88604061,"3 - UTM10x10 + Elevation",650
"Q-P10016",-0.0269750603157744,0.0043719234939944,"7","V32",5,210016,116,11486,"29TPG73","29TPG7335",7127,680,"Vinhais: Soeira","PT","ATL_COAST","N_DUNES",90,"",NA,10,"2181","Coincyo setigerae-Brassicetum barrelieri","Gonçalves Aguiar, C.F.","2000","Flora e vegetação da Serra de Nogueira e do Parque Natural de Montesinho","Universidade Técnica de Lisboa. Inst. Superior de Agronomia. pp."," V32   ","No forest",-6.936804617,41.88998822,"3 - UTM10x10 + Elevation",680
"Q-P10017",-0.0315895959128068,0.00905834455721211,"7","V32",5,210017,112,9853,"29TPG93","29TPG9536",7128,580,"Bragança: Labiados","PT","ATL_COAST","N_DUNES",100,"SE",45,4,"2181","Coincyo setigerae-Brassicetum barrelieri","Gonçalves Aguiar, C.F.","2000","Flora e vegetação da Serra de Nogueira e do Parque Natural de Montesinho","Universidade Técnica de Lisboa. Inst. Superior de Agronomia. pp."," V32   ","No forest",-6.61857634,41.83535117,"4 - UTM10x10 + Centroid",580
"Q-P10018",-0.0286029868369377,0.00109670915120152,"6","V32",5,210018,116,9707,"29TPG93","29TPG9130",7129,640,"Bragança: Gimonde","PT","ATL_COAST","N_DUNES",70,"W",54,5,"2181","Coincyo setigerae-Brassicetum barrelieri","Gonçalves Aguiar, C.F.","2000","Flora e vegetação da Serra de Nogueira e do Parque Natural de Montesinho","Universidade Técnica de Lisboa. Inst. Superior de Agronomia. pp."," V32   ","No forest",-6.632460618,41.87842123,"3 - UTM10x10 + Elevation",640
"Q-P10019",-0.032247328355815,0.00891468826910913,"7","V32",5,210019,116,9731,"29TPG93","29TPG9130",7130,680,"Bragança: Gimonde, estrada par a Alta Lombada","PT","ATL_COAST","N_DUNES",100,"S",9,3,"2181","Coincyo setigerae-Brassicetum barrelieri","Gonçalves Aguiar, C.F.","2000","Flora e vegetação da Serra de Nogueira e do Parque Natural de Montesinho","Universidade Técnica de Lisboa. Inst. Superior de Agronomia. pp."," V32   ","No forest",-6.624837156,41.87145852,"3 - UTM10x10 + Elevation",680
"Q-P10020",-0.0256021105932503,-0.00223495694560827,"7","V32",5,210020,115,11031,"29TPG73","29TPG7335",7131,700,"Bragança: Soeira, junto à estrada","PT","ATL_COAST","N_DUNES",90,"SW",54,8,"2181","Coincyo setigerae-Brassicetum barrelieri","Gonçalves Aguiar, C.F.","2000","Flora e vegetação da Serra de Nogueira e do Parque Natural de Montesinho","Universidade Técnica de Lisboa. Inst. Superior de Agronomia. pp."," V32   ","No forest",-6.930891087,41.87218204,"3 - UTM10x10 + Elevation",700
"Q-P10021",0.133011006348181,-0.130884345606243,"1","V37",9,210021,110,12387,"29TPG74","29TPG7840",7132,800,"Bragança: Vilarinho de Cova de Lua","PT","ATL_COAST","N_DUNES",70,"",NA,8,"750","Urtico urentis-Malvetum neglectae","Gonçalves Aguiar, C.F.","2000","Flora e vegetação da Serra de Nogueira e do Parque Natural de Montesinho","Universidade Técnica de Lisboa. Inst. Superior de Agronomia. pp."," V37   ","No forest",-6.928752015,41.95509681,"3 - UTM10x10 + Elevation",800
"Q-P10023",0.0114929993738237,-0.0814102961537926,"1","V37",9,210023,112,10496,"29TPG63","29TPG6934",7134,720,"Vinhais: Vila Verde","PT","ATL_COAST","N_DUNES",80,"",NA,4,"750","Urtico urentis-Malvetum neglectae","Gonçalves Aguiar, C.F.","2000","Flora e vegetação da Serra de Nogueira e do Parque Natural de Montesinho","Universidade Técnica de Lisboa. Inst. Superior de Agronomia. pp."," V37   ","No forest",-7.006255233,41.84436117,"3 - UTM10x10 + Elevation",720
"Q-P10024",0.016780296785307,-0.0954116376769896,"1","V37",9,210024,116,10410,"29TPG83","29TPG8637",7135,650,"Bragança: Rabal","PT","ATL_COAST","N_DUNES",70,"",NA,4,"750","Urtico urentis-Malvetum neglectae","Gonçalves Aguiar, C.F.","2000","Flora e vegetação da Serra de Nogueira e do Parque Natural de Montesinho","Universidade Técnica de Lisboa. Inst. Superior de Agronomia. pp."," V37   ","No forest",-6.761816739,41.86524646,"3 - UTM10x10 + Elevation",650
"Q-P10025",-0.0120288814826812,-0.00479597286905264,"14","V32",5,210025,116,10091,"29TPG94","29TPG9040",7136,650,"Bragança: Aveleda, caminho que margina a rib.ª da Aveleda","PT","ATL_COAST","N_DUNES",100,"",NA,8,"2176","Bromo scoparii-Hordeetum leporini","Gonçalves Aguiar, C.F.","2000","Flora e vegetação da Serra de Nogueira e do Parque Natural de Montesinho","Universidade Técnica de Lisboa. Inst. Superior de Agronomia. pp."," V32   ","No forest",-6.625956464,41.89123386,"3 - UTM10x10 + Elevation",650
"Q-P10026",-0.00794969621563008,-0.00835047741845729,"6","V32",5,210026,112,9853,"29TPG93","29TPG9536",7137,620,"Bragança: Labiados","PT","ATL_COAST","N_DUNES",100,"",NA,6,"2176","Bromo scoparii-Hordeetum leporini","Gonçalves Aguiar, C.F.","2000","Flora e vegetação da Serra de Nogueira e do Parque Natural de Montesinho","Universidade Técnica de Lisboa. Inst. Superior de Agronomia. pp."," V32   ","No forest",-6.61857634,41.83535117,"4 - UTM10x10 + Centroid",620
"Q-P10027",-0.00914490351696048,-0.00268133923237124,"14","V32",5,210027,112,10832,"29TPG84","29TPG8741",7138,660,"Bragança: França","PT","ATL_COAST","N_DUNES",100,"SE",25,6,"7012","Comunidad de Sisymbrium officinalis y Hordeum murinum supbs. leporinum","Gonçalves Aguiar, C.F.","2000","Flora e vegetação da Serra de Nogueira e do Parque Natural de Montesinho","Universidade Técnica de Lisboa. Inst. Superior de Agronomia. pp."," V32   ","No forest",-6.725117844,41.89706054,"3 - UTM10x10 + Elevation",660
"Q-P10028",-0.0105502241481291,-0.01236717815355,"1","V32",5,210028,112,9853,"29TPG93","29TPG9130",7139,520,"Bragança: Gimonde, junto à estrada para Palácios","PT","ATL_COAST","N_DUNES",100,"",NA,2,"7012","Comunidad de Sisymbrium officinalis y Hordeum murinum supbs. leporinum","Gonçalves Aguiar, C.F.","2000","Flora e vegetação da Serra de Nogueira e do Parque Natural de Montesinho","Universidade Técnica de Lisboa. Inst. Superior de Agronomia. pp."," V32   ","No forest",-6.61857634,41.83535117,"4 - UTM10x10 + Centroid",520
"Q-P10029",-0.0129340248324135,0.000645820473894387,"14","V37",9,210029,107,11676,"29TPG84","29TPG8741",7140,1000,"Bragança: França, Montesinho","PT","ATL_COAST","N_DUNES",90,"",NA,2,"7012","Comunidad de Sisymbrium officinalis y Hordeum murinum supbs. leporinum","Gonçalves Aguiar, C.F.","2000","Flora e vegetação da Serra de Nogueira e do Parque Natural de Montesinho","Universidade Técnica de Lisboa. Inst. Superior de Agronomia. pp."," V37   ","No forest",-6.803064813,41.91071034,"3 - UTM10x10 + Elevation",1000
"Q-P10030",-0.00701846827897765,-0.00492492127419397,"14","V37",9,210030,114,10176,"29TPG94","29TPG9040",7141,660,"Bragança: Aveleda","PT","ATL_COAST","N_DUNES",100,"",NA,5,"7012","Comunidad de Sisymbrium officinalis y Hordeum murinum supbs. leporinum","Gonçalves Aguiar, C.F.","2000","Flora e vegetação da Serra de Nogueira e do Parque Natural de Montesinho","Universidade Técnica de Lisboa. Inst. Superior de Agronomia. pp."," V37   ","No forest",-6.695830527,41.89080433,"3 - UTM10x10 + Elevation",660
"Q-P10031",-0.0138855532155592,0.000428602561218794,"17","V32",5,210031,109,10514,"29TPG83","29TPG8535",7142,600,"Bragança: Meixedo","PT","ATL_COAST","N_DUNES",100,"",NA,8,"7012","Comunidad de Sisymbrium officinalis y Hordeum murinum supbs. leporinum","Gonçalves Aguiar, C.F.","2000","Flora e vegetação da Serra de Nogueira e do Parque Natural de Montesinho","Universidade Técnica de Lisboa. Inst. Superior de Agronomia. pp."," V32   ","No forest",-6.80007697,41.85646934,"4 - UTM10x10 + Centroid",600
"Q-P10032",-0.00504296750962552,-0.00194731196430364,"14","V32",5,210032,116,10615,"29TPG73","29TPG7533",7143,600,"Bragança: Castrelos, ponte de Castrelos","PT","ATL_COAST","N_DUNES",100,"",NA,6,"7012","Comunidad de Sisymbrium officinalis y Hordeum murinum supbs. leporinum","Gonçalves Aguiar, C.F.","2000","Flora e vegetação da Serra de Nogueira e do Parque Natural de Montesinho","Universidade Técnica de Lisboa. Inst. Superior de Agronomia. pp."," V32   ","No forest",-6.927495113,41.85609022,"3 - UTM10x10 + Elevation",600
"Q-P10033",-0.00899362496907519,-0.0103331353388558,"14","V37",9,210033,121,10710,"29TPG63","29TPG6134",7144,740,"Vinhais: Sobreiró-de-Cima","PT","ATL_COAST","N_DUNES",100,"",NA,6,"7012","Comunidad de Sisymbrium officinalis y Hordeum murinum supbs. leporinum","Gonçalves Aguiar, C.F.","2000","Flora e vegetação da Serra de Nogueira e do Parque Natural de Montesinho","Universidade Técnica de Lisboa. Inst. Superior de Agronomia. pp."," V37   ","No forest",-7.038993386,41.82880563,"3 - UTM10x10 + Elevation",740
"Q-P10034",-0.0103411792341455,-0.0139314154664782,"14","V32",5,210034,112,9853,"29TPG93","29TPG9130",7145,500,"Bragança: Gimonde","PT","ATL_COAST","N_DUNES",100,"",NA,16,"7012","Comunidad de Sisymbrium officinalis y Hordeum murinum supbs. leporinum","Gonçalves Aguiar, C.F.","2000","Flora e vegetação da Serra de Nogueira e do Parque Natural de Montesinho","Universidade Técnica de Lisboa. Inst. Superior de Agronomia. pp."," V32   ","No forest",-6.61857634,41.83535117,"4 - UTM10x10 + Centroid",500
"Q-P10035",-0.0129697560054383,-0.00276966326504868,"1","V32",5,210035,113,9360,"29TQG03","29TQG0036",7146,900,"Bragança: Deilão","PT","ATL_COAST","N_DUNES",100,"",NA,4,"7012","Comunidad de Sisymbrium officinalis y Hordeum murinum supbs. leporinum","Gonçalves Aguiar, C.F.","2000","Flora e vegetação da Serra de Nogueira e do Parque Natural de Montesinho","Universidade Técnica de Lisboa. Inst. Superior de Agronomia. pp."," V32   ","No forest",-6.584742758,41.84390284,"3 - UTM10x10 + Elevation",900
"Q-P10036",-0.0339914954505185,-0.0324943282432679,"6","V15",4,210036,109,9356,"29TPG93","29TPG9733",7147,940,"Bragança: Caravela","PT","ATL_COAST","N_DUNES",50,"SW",4.5,12,"7013_a,,,,,GA12","","","","",""," V15   ","No forest",-6.594360057,41.84360189,"3 - UTM10x10 + Elevation",940
"Q-P10037",-0.0350641981583726,-0.0370959329544549,"6","V15",4,210037,111,9336,"29TQG03","29TQG0036",7148,920,"Bragança: Deilão, posto de vigia","PT","ATL_COAST","N_DUNES",70,"S",5,6,"7013_a,,,,,GA12","","","","",""," V15   ","No forest",-6.589350209,41.84015678,"3 - UTM10x10 + Elevation",920
"Q-P10038",-0.0330516880878835,-0.0335803118098401,"6","V15",4,210038,112,9671,"29TQG03","29TQG0036",7149,900,"Bragança: Deilão, na aldeia","PT","ATL_COAST","N_DUNES",60,"",NA,8,"7013_a,,,,,GA12","","","","",""," V15   ","No forest",-6.570114655,41.88398082,"3 - UTM10x10 + Elevation",900
"Q-P10040",-0.0324119560952099,-0.0399424249560251,"6","V15",4,210040,108,11272,"29TPG73","29TPG7838",7150,900,"Bragança: Terroso","PT","ATL_COAST","N_DUNES",60,"W",4.5,25,"7013_a,,,,,GA12","","","","",""," V15   ","No forest",-6.844864028,41.8841034,"3 - UTM10x10 + Elevation",900
"Q-P10041",-0.0302018968009763,-0.00508815698651888,"6","V15",4,210041,119,12990,"29TPG54","29TPG5441",7151,780,"Vinhais: Edroso","PT","ATL_COAST","N_DUNES",70,"",NA,30,"7013_a,,,,,GA12","","","","",""," V15   ","No forest",-7.163941607,41.93598928,"3 - UTM10x10 + Elevation",780
"Q-P10042",-0.0272822361252136,-0.036901855073366,"6","V15",4,210042,121,12558,"29TPG54","29TPG5245",7152,780,"Vinhais: Vilarinho","PT","ATL_COAST","N_DUNES",40,"",NA,20,"7013_a,,,,,GA12","","","","",""," V15   ","No forest",-7.128977716,41.91744476,"3 - UTM10x10 + Elevation",780
"Q-P10043",-0.0365265196517883,-0.038416335451704,"6","V15",4,210043,113,11439,"29TPG54","29TPG5447",7153,820,"Vinhais: Pinheiro Novo","PT","ATL_COAST","N_DUNES",70,"",NA,4,"7013_a,,,,,GA12","","","","",""," V15   ","No forest",-7.159197525,41.90014462,"3 - UTM10x10 + Elevation",820
"Q-P10045",-0.0295366177436085,-0.0397563155637555,"6","V15",4,210045,99,11900,"29TPG84","29TPG8741",7155,1030,"Bragança: França, Montesinho, a Norte da aldeia","PT","ATL_COAST","N_DUNES",70,"S",4.5,25,"7013_a,,,,,GA12","","","","",""," V15   ","No forest",-6.813546977,41.92476961,"3 - UTM10x10 + Elevation",1030
"Q-P10046",-0.0338609301604061,-0.0389036329353065,"6","V15",4,210046,111,9280,"29TPG93","29TPG9632",7156,880,"Bragança: Babe","PT","ATL_COAST","N_DUNES",70,"",NA,20,"7013_a,,,,,GA12","","","","",""," V15   ","No forest",-6.602866544,41.82352414,"3 - UTM10x10 + Elevation",880
"Q-P10047",-0.034195577655678,-0.0365433207508362,"6","V15",4,210047,115,8906,"29TPG93","29TPG9238",7157,750,"Bragança: Varge, estrada para rio de Onor","PT","ATL_COAST","N_DUNES",30,"SW",4.5,16,"7013_a,,,,,GA12","","","","",""," V15   ","No forest",-6.596850701,41.80210099,"3 - UTM10x10 + Elevation",750
"Q-P10048",-0.0295895216639592,-0.0310428370114538,"6","V15",4,210048,115,9845,"29TPG93","29TPG9036",7158,680,"Bragança: Baçal, aeródromo","PT","ATL_COAST","N_DUNES",30,"",NA,16,"7013_b,,,,,GA12","","","","",""," V15   ","No forest",-6.628056888,41.88576452,"3 - UTM10x10 + Elevation",680
"Q-P10049",-0.034228099066031,-0.0350664970931404,"6","V15",4,210049,110,11114,"29TPG63","29TPG6133",7159,760,"Vinhais: Sobreiró-de-Baixo","PT","ATL_COAST","N_DUNES",50,"",NA,25,"7013_b,,,,,GA12","","","","",""," V15   ","No forest",-7.0318689,41.86867586,"3 - UTM10x10 + Elevation",760
"Q-P10050",-0.0292785726763064,-0.0182770896258991,"6","V15",4,210050,107,10551,"29TPG62","29TPG6928",7160,880,"Vinhais: Ousilhão","PT","ATL_COAST","N_DUNES",30,"",NA,25,"7013_b,,,,,GA12","","","","",""," V15   ","No forest",-6.956713676,41.78304936,"3 - UTM10x10 + Elevation",880
"Q-P10051",-0.0315318709687874,-0.0282338602361403,"6","V15",4,210051,109,9845,"29TPG62","29TPG6928",7161,850,"Vinhais: Vila Boa de Ousilhão","PT","ATL_COAST","N_DUNES",60,"",NA,20,"7013_b,,,,,GA12","","","","",""," V15   ","No forest",-6.962255002,41.75584432,"3 - UTM10x10 + Elevation",850
"Q-P10052",-0.0281739458038733,-0.0345875093874074,"6","V15",4,210052,115,11555,"29TPG63","29TPG6934",7162,790,"Vinhais: Vila-Verde, estradão para o Monte de Cabrões","PT","ATL_COAST","N_DUNES",60,"W",4.5,25,"7013_b,,,,,GA12","","","","",""," V15   ","No forest",-6.951235016,41.88949185,"3 - UTM10x10 + Elevation",790
"Q-P10053",-0.0309521232943063,-0.0382412339251552,"6","V15",4,210053,109,11468,"29TPG63","29TPG6335",7163,860,"Vinhais: Lagarelhos","PT","ATL_COAST","N_DUNES",30,"",NA,15,"7013_b,,,,,GA12","","","","",""," V15   ","No forest",-7.067007472,41.89084622,"3 - UTM10x10 + Elevation",860
"Q-P10054",-0.0275829016773317,-0.0336669093559657,"6","V15",4,210054,113,9215,"29TPG93","29TPG9937",7164,830,"Vinhais: Paçó","PT","ATL_COAST","N_DUNES",70,"NNE",9,16,"7013","Catapodietum patentis","Gonçalves Aguiar, C.F.","2000","Flora e vegetação da Serra de Nogueira e do Parque Natural de Montesinho","Universidade Técnica de Lisboa. Inst. Superior de Agronomia. pp."," V15   ","No forest",-6.597757147,41.81828152,"3 - UTM10x10 + Elevation",830
"Q-P10055",-0.0228946382226188,-0.0301488566185837,"6","V15",4,210055,112,11101,"29TPG63","29TPG6236",7165,840,"Vinhais: Zido","PT","ATL_COAST","N_DUNES",60,"SE",4.5,9,"7013","Catapodietum patentis","Gonçalves Aguiar, C.F.","2000","Flora e vegetação da Serra de Nogueira e do Parque Natural de Montesinho","Universidade Técnica de Lisboa. Inst. Superior de Agronomia. pp."," V15   ","No forest",-7.059109571,41.88032087,"3 - UTM10x10 + Elevation",840
"Q-P10060",-0.0274146237786201,-0.041358190971244,"6","V15",4,210060,117,9915,"29TPG93","29TPG9536",7166,640,"Bragança: Labiados","PT","ATL_COAST","N_DUNES",50,"W",4.5,12,"7014","Comunidad de Chrysanthemum segetum y Lolium rigidum","Gonçalves Aguiar, C.F.","2000","Flora e vegetação da Serra de Nogueira e do Parque Natural de Montesinho","Universidade Técnica de Lisboa. Inst. Superior de Agronomia. pp."," V15   ","No forest",-6.635274238,41.88553598,"3 - UTM10x10 + Elevation",640
"Q-P10061",-0.028464266258581,-0.0450341208515108,"6","V15",4,210061,116,10539,"29TPG83","29TPG8936",7167,630,"Bragança: Baçal","PT","ATL_COAST","N_DUNES",50,"",NA,10,"7014","Comunidad de Chrysanthemum segetum y Lolium rigidum","Gonçalves Aguiar, C.F.","2000","Flora e vegetação da Serra de Nogueira e do Parque Natural de Montesinho","Universidade Técnica de Lisboa. Inst. Superior de Agronomia. pp."," V15   ","No forest",-6.76432699,41.86696504,"3 - UTM10x10 + Elevation",630
"Q-P10062",-0.0179825152512045,-0.0555407213528434,"4","V15",4,210062,111,9593,"29TPG93","29TPG9832",7168,840,"Bragança: S. Julião","PT","ATL_COAST","N_DUNES",40,"",NA,4,"2199","Miboro minimae-Arabidopsietum thalianae","Gonçalves Aguiar, C.F.","2000","Flora e vegetação da Serra de Nogueira e do Parque Natural de Montesinho","Universidade Técnica de Lisboa. Inst. Superior de Agronomia. pp."," V15   ","No forest",-6.592963053,41.86165553,"3 - UTM10x10 + Elevation",840
"Q-P10064",-0.0164830160486792,-0.0555037646108586,"4","V15",4,210064,113,10433,"29TPG83","29TPG8637",7169,650,"Bragança: Rabal, Talude","PT","ATL_COAST","N_DUNES",50,"NW",13.5,4,"2199","Miboro minimae-Arabidopsietum thalianae","Gonçalves Aguiar, C.F.","2000","Flora e vegetação da Serra de Nogueira e do Parque Natural de Montesinho","Universidade Técnica de Lisboa. Inst. Superior de Agronomia. pp."," V15   ","No forest",-6.724490367,41.88627521,"3 - UTM10x10 + Elevation",650
"Q-P10065",-0.0251200960442578,-0.0514480506161139,"4","V15",4,210065,116,10932,"29TPG83","29TPG8637",7170,630,"Bragança: Rabal, Nabal","PT","ATL_COAST","N_DUNES",30,"S",13.5,1,"2199","Miboro minimae-Arabidopsietum thalianae","Gonçalves Aguiar, C.F.","2000","Flora e vegetação da Serra de Nogueira e do Parque Natural de Montesinho","Universidade Técnica de Lisboa. Inst. Superior de Agronomia. pp."," V15   ","No forest",-6.736518026,41.88588395,"3 - UTM10x10 + Elevation",630
"Q-P10066",-0.0244154408015084,-0.0523066482572764,"4","V15",4,210066,111,10421,"29TPG94","29TPG9040",7171,680,"Bragança: Aveleda","PT","ATL_COAST","N_DUNES",70,"",NA,3,"2199","Miboro minimae-Arabidopsietum thalianae","Gonçalves Aguiar, C.F.","2000","Flora e vegetação da Serra de Nogueira e do Parque Natural de Montesinho","Universidade Técnica de Lisboa. Inst. Superior de Agronomia. pp."," V15   ","No forest",-6.684422129,41.90197718,"3 - UTM10x10 + Elevation",680
"Q-P10067",-0.0141745296702484,-0.0543624074369985,"4","V15",4,210067,109,11575,"29TPG74","29TPG7640",7172,780,"Bragança: Parâmio","PT","ATL_COAST","N_DUNES",20,"SE",45,10,"2199","Miboro minimae-Arabidopsietum thalianae","Gonçalves Aguiar, C.F.","2000","Flora e vegetação da Serra de Nogueira e do Parque Natural de Montesinho","Universidade Técnica de Lisboa. Inst. Superior de Agronomia. pp."," V15   ","No forest",-6.939459901,41.9331186,"3 - UTM10x10 + Elevation",780
"Q-P10068",-0.0275553874272664,-0.0514920229008611,"4","V15",4,210068,120,11578,"29TPG53","29TPG5338",7173,700,"Vinhais: Gestosa","PT","ATL_COAST","N_DUNES",40,"",NA,6,"2199","Miboro minimae-Arabidopsietum thalianae","Gonçalves Aguiar, C.F.","2000","Flora e vegetação da Serra de Nogueira e do Parque Natural de Montesinho","Universidade Técnica de Lisboa. Inst. Superior de Agronomia. pp."," V15   ","No forest",-7.182540579,41.88849023,"3 - UTM10x10 + Elevation",700
"Q-P10069",-0.0203830274257318,-0.0291903632217498,"4","V15",4,210069,108,9327,"29TPG93","29TPG9732",7174,830,"Bragança: Palácios","PT","ATL_COAST","N_DUNES",70,"ESE",4.5,4,"2199","Miboro minimae-Arabidopsietum thalianae","Gonçalves Aguiar, C.F.","2000","Flora e vegetação da Serra de Nogueira e do Parque Natural de Montesinho","Universidade Técnica de Lisboa. Inst. Superior de Agronomia. pp."," V15   ","No forest",-6.639224308,41.82777945,"3 - UTM10x10 + Elevation",830
"Q-P10070",-0.0258263753315618,-0.0412548408863364,"6","V15",4,210070,112,9853,"29TPG93","29TPG9130",7175,560,"Bragança: Gimonde","PT","ATL_COAST","N_DUNES",70,"E",9,4,"2199","Miboro minimae-Arabidopsietum thalianae","Gonçalves Aguiar, C.F.","2000","Flora e vegetação da Serra de Nogueira e do Parque Natural de Montesinho","Universidade Técnica de Lisboa. Inst. Superior de Agronomia. pp."," V15   ","No forest",-6.61857634,41.83535117,"4 - UTM10x10 + Centroid",560
"Q-P10071",0.0791503306642876,-0.296307183889097,"12","V15",4,210071,113,10433,"29TPG83","29TPG8637",7176,640,"Bragança: Rabal","PT","ATL_COAST","N_DUNES",70,"",NA,16,"7015","Comunidad de Echinochloa crus-galli y Setaria Verticillata","Gonçalves Aguiar, C.F.","2000","Flora e vegetação da Serra de Nogueira e do Parque Natural de Montesinho","Universidade Técnica de Lisboa. Inst. Superior de Agronomia. pp."," V15   ","No forest",-6.724490367,41.88627521,"3 - UTM10x10 + Elevation",640
"Q-P10072",0.0970337960253818,-0.401753854201713,"12","V",9,210072,115,11397,"29TPG84","29TPG8741",7177,670,"Bragança: França","PT","ATL_COAST","N_DUNES",80,"",NA,12,"7015","Comunidad de Echinochloa crus-galli y Setaria Verticillata","Gonçalves Aguiar, C.F.","2000","Flora e vegetação da Serra de Nogueira e do Parque Natural de Montesinho","Universidade Técnica de Lisboa. Inst. Superior de Agronomia. pp."," V     ","No forest",-6.727942574,41.90417254,"3 - UTM10x10 + Elevation",670
"Q-P10073",0.104515248267267,-0.370862116086582,"12","V15",4,210073,115,9784,"29TPG93","29TPG9136",7178,660,"Bragança: Sacoias","PT","ATL_COAST","N_DUNES",100,"",NA,20,"7015","Comunidad de Echinochloa crus-galli y Setaria Verticillata","Gonçalves Aguiar, C.F.","2000","Flora e vegetação da Serra de Nogueira e do Parque Natural de Montesinho","Universidade Técnica de Lisboa. Inst. Superior de Agronomia. pp."," V15   ","No forest",-6.630258874,41.88209289,"3 - UTM10x10 + Elevation",660
"Q-P10074",0.33096231213282,-0.253126177578585,"1","V34",7,210074,110,10909,"29TPG73","29TPG7335",7154,550,"Vinhais: Soeira, truticultura do Tuela","PT","ATL_COAST","N_DUNES",100,"",NA,6,"7015","Comunidad de Echinochloa crus-galli y Setaria Verticillata","Gonçalves Aguiar, C.F.","2000","Flora e vegetação da Serra de Nogueira e do Parque Natural de Montesinho","Universidade Técnica de Lisboa. Inst. Superior de Agronomia. pp."," V34   ","No forest",-6.866908731,41.86536384,"4 - UTM10x10 + Centroid",550
"Q-P10075",0.107451140849752,-0.359559413891776,"12","V37",9,210075,110,9810,"29TPG62","29TPG6928",7180,760,"Vinhais: Ousilhão","PT","ATL_COAST","N_DUNES",60,"",NA,4,"7015","Comunidad de Echinochloa crus-galli y Setaria Verticillata","Gonçalves Aguiar, C.F.","2000","Flora e vegetação da Serra de Nogueira e do Parque Natural de Montesinho","Universidade Técnica de Lisboa. Inst. Superior de Agronomia. pp."," V37   ","No forest",-6.963473393,41.77561233,"3 - UTM10x10 + Elevation",760
"Q-P10077",0.0735505299252402,-0.313791175143606,"12","V15",4,210077,112,9853,"29TPG93","29TPG9130",7181,530,"Bragança: Gimonde","PT","ATL_COAST","N_DUNES",100,"",NA,20,"7015","Comunidad de Echinochloa crus-galli y Setaria Verticillata","Gonçalves Aguiar, C.F.","2000","Flora e vegetação da Serra de Nogueira e do Parque Natural de Montesinho","Universidade Técnica de Lisboa. Inst. Superior de Agronomia. pp."," V15   ","No forest",-6.61857634,41.83535117,"4 - UTM10x10 + Centroid",530
"Q-P10078",0.102847051830642,-0.335120918013752,"12","V15",4,210078,112,9853,"29TPG93","29TPG9130",7182,540,"Bragança: Gimonde","PT","ATL_COAST","N_DUNES",79,"",NA,4,"7015","Comunidad de Echinochloa crus-galli y Setaria Verticillata","Gonçalves Aguiar, C.F.","2000","Flora e vegetação da Serra de Nogueira e do Parque Natural de Montesinho","Universidade Técnica de Lisboa. Inst. Superior de Agronomia. pp."," V15   ","No forest",-6.61857634,41.83535117,"4 - UTM10x10 + Centroid",540
"Q-P10081",-0.0147481294145133,-0.0569805777792676,"12","V15",4,210081,115,11397,"29TPG84","29TPG8741",7183,660,"Bragança: França, veiga","PT","ATL_COAST","N_DUNES",90,"",NA,4,"7016","Comunidad de Lamium amplexicaule y Stellaria media","Gonçalves Aguiar, C.F.","2000","Flora e vegetação da Serra de Nogueira e do Parque Natural de Montesinho","Universidade Técnica de Lisboa. Inst. Superior de Agronomia. pp."," V15   ","No forest",-6.727942574,41.90417254,"3 - UTM10x10 + Elevation",660
"Q-P10082",-0.0101836124062538,-0.0714023598621401,"12","V",4,210082,106,11259,"29TPG84","29TPG8545",7184,1000,"Bragança: Montesinho, na aldeia","PT","ATL_COAST","N_DUNES",100,"",NA,2,"7016","Comunidad de Lamium amplexicaule y Stellaria media","Gonçalves Aguiar, C.F.","2000","Flora e vegetação da Serra de Nogueira e do Parque Natural de Montesinho","Universidade Técnica de Lisboa. Inst. Superior de Agronomia. pp."," V     ","No forest",-6.800658553,41.91079012,"3 - UTM10x10 + Elevation",1000
"Q-P10083",-0.0117249732650871,-0.0669007443384594,"12","V15",4,210083,116,10282,"29TPG83","29TPG8637",7185,630,"Bragança: Rabal, veiga","PT","ATL_COAST","N_DUNES",80,"",NA,2,"7016","Comunidad de Lamium amplexicaule y Stellaria media","Gonçalves Aguiar, C.F.","2000","Flora e vegetação da Serra de Nogueira e do Parque Natural de Montesinho","Universidade Técnica de Lisboa. Inst. Superior de Agronomia. pp."," V15   ","No forest",-6.761711225,41.86344897,"3 - UTM10x10 + Elevation",630
"Q-P10084",-0.0120026277008971,-0.0669669860163716,"12","V",4,210084,114,10612,"29TPG83","29TPG8936",7186,650,"Bragança: Baçal","PT","ATL_COAST","N_DUNES",60,"",NA,6,"7016","Comunidad de Lamium amplexicaule y Stellaria media","Gonçalves Aguiar, C.F.","2000","Flora e vegetação da Serra de Nogueira e do Parque Natural de Montesinho","Universidade Técnica de Lisboa. Inst. Superior de Agronomia. pp."," V     ","No forest",-6.731706991,41.88604061,"3 - UTM10x10 + Elevation",650
"Q-P10085",-0.0103406812659644,-0.0689178516326441,"12","V15",4,210085,113,9296,"29TPG93","29TPG9937",7187,870,"Vinhais: Paçó","PT","ATL_COAST","N_DUNES",100,"",NA,4,"7016","Comunidad de Lamium amplexicaule y Stellaria media","Gonçalves Aguiar, C.F.","2000","Flora e vegetação da Serra de Nogueira e do Parque Natural de Montesinho","Universidade Técnica de Lisboa. Inst. Superior de Agronomia. pp."," V15   ","No forest",-6.632890883,41.80096541,"3 - UTM10x10 + Elevation",870
"Q-P10086",-0.0116891811441278,-0.0638091495417566,"12","V15",4,210086,113,11135,"29TPG53","29TPG5338",7188,700,"Vinhais: Gestosa","PT","ATL_COAST","N_DUNES",100,"",NA,4,"7016","Comunidad de Lamium amplexicaule y Stellaria media","Gonçalves Aguiar, C.F.","2000","Flora e vegetação da Serra de Nogueira e do Parque Natural de Montesinho","Universidade Técnica de Lisboa. Inst. Superior de Agronomia. pp."," V15   ","No forest",-7.07582557,41.87792696,"3 - UTM10x10 + Elevation",700
"Q-P10087",-0.0102033645517718,-0.070830706373936,"12","V",4,210087,108,9511,"29TPG72","29TPG7426",7189,900,"Bragança: Carrazedo","PT","ATL_COAST","N_DUNES",100,"",NA,4,"7016","Comunidad de Lamium amplexicaule y Stellaria media","Gonçalves Aguiar, C.F.","2000","Flora e vegetação da Serra de Nogueira e do Parque Natural de Montesinho","Universidade Técnica de Lisboa. Inst. Superior de Agronomia. pp."," V     ","No forest",-6.899963984,41.72015921,"3 - UTM10x10 + Elevation",900
"Q-P10088",-0.0109930693599546,-0.0651407741112586,"12","V15",4,210088,112,10229,"29TPG94","29TPG9745",7190,750,"Bragança: rio de Onor","PT","ATL_COAST","N_DUNES",100,"",NA,4,"7016","Comunidad de Lamium amplexicaule y Stellaria media","Gonçalves Aguiar, C.F.","2000","Flora e vegetação da Serra de Nogueira e do Parque Natural de Montesinho","Universidade Técnica de Lisboa. Inst. Superior de Agronomia. pp."," V15   ","No forest",-6.614058215,41.93663371,"1 - UTM1x1 + Elevation",750
"Q-P10090",-0.0072209292872028,0.0162575564603217,"14","?",11,210090,108,10352,"29TPG73","29TPG7735",7192,900,"Bragança: Gondesende, Portela","PT","ATL_COAST","N_DUNES",100,"SW",54,6,"7017","Comunidad de Chaerophyllum temulum y Urtica dioica","Gonçalves Aguiar, C.F.","2000","Flora e vegetação da Serra de Nogueira e do Parque Natural de Montesinho","Universidade Técnica de Lisboa. Inst. Superior de Agronomia. pp.","      ?","No forest",-6.84862466,41.82634749,"3 - UTM10x10 + Elevation",900
"Q-P10091",-0.0100330073026787,0.0400229514957374,"14","V32",5,210091,114,12423,"29TPG54","29TPG5047",7193,730,"Vinhais: Cisterna","PT","ATL_COAST","N_DUNES",100,"SW",63,6,"7017","Comunidad de Chaerophyllum temulum y Urtica dioica","Gonçalves Aguiar, C.F.","2000","Flora e vegetação da Serra de Nogueira e do Parque Natural de Montesinho","Universidade Técnica de Lisboa. Inst. Superior de Agronomia. pp."," V32   ","No forest",-7.182960705,41.96578556,"2 - UTM1x1 + Centroid",730
"Q-P10093",-0.00478653382349675,0.0229240691804742,"15","?",11,210093,112,11200,"29TPG63","29TPG6934",7195,740,"Vinhais: Vila Verde","PT","ATL_COAST","N_DUNES",100,"S",63,4,"7017","Comunidad de Chaerophyllum temulum y Urtica dioica","Gonçalves Aguiar, C.F.","2000","Flora e vegetação da Serra de Nogueira e do Parque Natural de Montesinho","Universidade Técnica de Lisboa. Inst. Superior de Agronomia. pp.","      ?","No forest",-7.039080911,41.86842203,"3 - UTM10x10 + Elevation",740
"Q-P10095",-0.0101865952155043,0.0297466380203812,"15","?",11,210095,110,11169,"29TPG74","29TPG7142",7197,800,"Vinhais: Dine","PT","ATL_COAST","N_DUNES",100,"W",81,5,"7017","Comunidad de Chaerophyllum temulum y Urtica dioica","Gonçalves Aguiar, C.F.","2000","Flora e vegetação da Serra de Nogueira e do Parque Natural de Montesinho","Universidade Técnica de Lisboa. Inst. Superior de Agronomia. pp.","      ?","No forest",-6.850539008,41.89832036,"3 - UTM10x10 + Elevation",800
"Q-P10097",-0.00302332356009288,0.0168991509502046,"14","V",11,210097,118,10998,"29TPG73","29TPG7837",7199,800,"Bragança: Espinhosela","PT","ATL_COAST","N_DUNES",100,"SW",72,6,"7017","Comunidad de Chaerophyllum temulum y Urtica dioica","Gonçalves Aguiar, C.F.","2000","Flora e vegetação da Serra de Nogueira e do Parque Natural de Montesinho","Universidade Técnica de Lisboa. Inst. Superior de Agronomia. pp."," V     ","No forest",-6.935699959,41.87201709,"3 - UTM10x10 + Elevation",800
"Q-P10098",-0.00522859798817138,0.0204360131022209,"14","?",11,210098,105,10866,"29TPG73","29TPG7838",7200,880,"Bragança: Terroso","PT","ATL_COAST","N_DUNES",100,"W",63,4,"7017","Comunidad de Chaerophyllum temulum y Urtica dioica","Gonçalves Aguiar, C.F.","2000","Flora e vegetação da Serra de Nogueira e do Parque Natural de Montesinho","Universidade Técnica de Lisboa. Inst. Superior de Agronomia. pp.","      ?","No forest",-6.836679525,41.86816917,"3 - UTM10x10 + Elevation",880
"Q-P10099",0.00224501564146518,-0.00691537239090168,"14","V39",11,210099,116,9684,"29TPG82","29TPG8627",7201,680,"Bragança: Samil","PT","ATL_COAST","N_DUNES",90,"",NA,2,"742","Galio aparines-Conietum maculati","Gonçalves Aguiar, C.F.","2000","Flora e vegetação da Serra de Nogueira e do Parque Natural de Montesinho","Universidade Técnica de Lisboa. Inst. Superior de Agronomia. pp."," V39   ","No forest",-6.807617165,41.78449342,"3 - UTM10x10 + Elevation",680
"Q-P10100",-0.00104463325920251,0.0109334449511023,"14","V39",11,210100,113,10234,"29TPG83","29TPG8233",7202,820,"Bragança: Donai","PT","ATL_COAST","N_DUNES",100,"",NA,8,"742","Galio aparines-Conietum maculati","Gonçalves Aguiar, C.F.","2000","Flora e vegetação da Serra de Nogueira e do Parque Natural de Montesinho","Universidade Técnica de Lisboa. Inst. Superior de Agronomia. pp."," V39   ","No forest",-6.795969738,41.83170412,"3 - UTM10x10 + Elevation",820
"Q-P10101",-0.00161296283390175,0.0189080555191905,"14","V39",11,210101,118,9323,"29TQG03","29TQG0437",7203,630,"Bragança: Petisqueira","PT","ATL_COAST","N_DUNES",100,"",NA,6,"742","Galio aparines-Conietum maculati","Gonçalves Aguiar, C.F.","2000","Flora e vegetação da Serra de Nogueira e do Parque Natural de Montesinho","Universidade Técnica de Lisboa. Inst. Superior de Agronomia. pp."," V39   ","No forest",-6.49272956,41.87915943,"3 - UTM10x10 + Elevation",630
"Q-P10102",0.00494752493159009,0.00660334434992449,"14","V39",11,210102,112,9853,"29TPG93","29TPG9136",7204,600,"Bragança: Sacoias, junto ao rio Igrejas","PT","ATL_COAST","N_DUNES",100,"",NA,2,"742","Galio aparines-Conietum maculati","Gonçalves Aguiar, C.F.","2000","Flora e vegetação da Serra de Nogueira e do Parque Natural de Montesinho","Universidade Técnica de Lisboa. Inst. Superior de Agronomia. pp."," V39   ","No forest",-6.61857634,41.83535117,"4 - UTM10x10 + Centroid",600
"Q-P10103",0.00378568386513192,0.00909578427195434,"14","V39",11,210103,112,10103,"29TPG94","29TPG9040",7205,660,"Bragança: Aveleda","PT","ATL_COAST","N_DUNES",100,"",NA,12,"742","Galio aparines-Conietum maculati","Gonçalves Aguiar, C.F.","2000","Flora e vegetação da Serra de Nogueira e do Parque Natural de Montesinho","Universidade Técnica de Lisboa. Inst. Superior de Agronomia. pp."," V39   ","No forest",-6.61694175,41.90232436,"3 - UTM10x10 + Elevation",660
"Q-P10104",0.00293205852290135,0.00522319503137769,"14","V39",11,210104,117,10883,"29TPG63","29TPG6435",7179,790,"Vinhais: rio de Fornos","PT","ATL_COAST","N_DUNES",100,"",NA,4,"742","Galio aparines-Conietum maculati","Gonçalves Aguiar, C.F.","2000","Flora e vegetação da Serra de Nogueira e do Parque Natural de Montesinho","Universidade Técnica de Lisboa. Inst. Superior de Agronomia. pp."," V39   ","No forest",-7.01838365,41.8457377,"3 - UTM10x10 + Elevation",790
"Q-P10107",-0.00670463463230705,0.0159420611934264,"15","V39",11,210107,109,12922,"29TPG74","29TPG7840",7209,840,"Bragança: Vilarinho de Cova de Lua","PT","ATL_COAST","N_DUNES",100,"",NA,5,"2725","Geranio robertiani-Caryolophetum sempervirentis","Gonçalves Aguiar, C.F.","2000","Flora e vegetação da Serra de Nogueira e do Parque Natural de Montesinho","Universidade Técnica de Lisboa. Inst. Superior de Agronomia. pp."," V39   ","No forest",-6.94308629,41.95280375,"3 - UTM10x10 + Elevation",840
"Q-P10123",-0.0143273218684491,0.0210154029161588,"14","V39",11,210123,112,9853,"29TPG93","29TPG9130",7224,520,"Bragança: Gimonde, à saída da ponte em direcção a Palácios","PT","ATL_COAST","N_DUNES",90,"E",45,4,"4207c","Galio aparinellae-Anthriscetum caucalidis","Gonçalves Aguiar, C.F.","2000","Flora e vegetação da Serra de Nogueira e do Parque Natural de Montesinho","Universidade Técnica de Lisboa. Inst. Superior de Agronomia. pp."," V39   ","No forest",-6.61857634,41.83535117,"4 - UTM10x10 + Centroid",520
"Q-P10124",-0.0232869276535376,0.0282205385821287,"14","V32",5,210124,115,10426,"29TPG83","29TPG8936",7225,630,"Bragança: Baçal","PT","ATL_COAST","N_DUNES",100,"",NA,2,"4207c","Galio aparinellae-Anthriscetum caucalidis","Gonçalves Aguiar, C.F.","2000","Flora e vegetação da Serra de Nogueira e do Parque Natural de Montesinho","Universidade Técnica de Lisboa. Inst. Superior de Agronomia. pp."," V32   ","No forest",-6.764221399,41.86516756,"3 - UTM10x10 + Elevation",630
"Q-P10125",-0.0220966133848711,0.0292387318057959,"19","V39",11,210125,117,9894,"29TPG93","29TPG9632",7226,640,"Bragança: Babe, Gúndia","PT","ATL_COAST","N_DUNES",80,"N",54,4,"4207c","Galio aparinellae-Anthriscetum caucalidis","Gonçalves Aguiar, C.F.","2000","Flora e vegetação da Serra de Nogueira e do Parque Natural de Montesinho","Universidade Técnica de Lisboa. Inst. Superior de Agronomia. pp."," V39   ","No forest",-6.635070162,41.8819405,"3 - UTM10x10 + Elevation",640
"Q-P10126",-0.0184936327411412,0.0275660007692887,"14","V",11,210126,113,9925,"29TPG94","29TPG9040",7227,670,"Bragança: Aveleda","PT","ATL_COAST","N_DUNES",100,"E",63,6,"4207c","Galio aparinellae-Anthriscetum caucalidis","Gonçalves Aguiar, C.F.","2000","Flora e vegetação da Serra de Nogueira e do Parque Natural de Montesinho","Universidade Técnica de Lisboa. Inst. Superior de Agronomia. pp."," V     ","No forest",-6.618840008,41.89325961,"3 - UTM10x10 + Elevation",670
"Q-P10127",-0.0169147286114469,-0.00296863914313639,"14","V32",5,210127,116,10615,"29TPG73","29TPG7533",7228,600,"Bragança: Castrelos","PT","ATL_COAST","N_DUNES",80,"N",36,6,"4207c","Galio aparinellae-Anthriscetum caucalidis","Gonçalves Aguiar, C.F.","2000","Flora e vegetação da Serra de Nogueira e do Parque Natural de Montesinho","Universidade Técnica de Lisboa. Inst. Superior de Agronomia. pp."," V32   ","No forest",-6.927495113,41.85609022,"3 - UTM10x10 + Elevation",600
"Q-P10128",-0.0222137560617252,0.0304879731870956,"14","V32",5,210128,109,10514,"29TPG83","29TPG8535",7229,580,"Bragança: Meixedo","PT","ATL_COAST","N_DUNES",90,"SE",54,6,"4207c","Galio aparinellae-Anthriscetum caucalidis","Gonçalves Aguiar, C.F.","2000","Flora e vegetação da Serra de Nogueira e do Parque Natural de Montesinho","Universidade Técnica de Lisboa. Inst. Superior de Agronomia. pp."," V32   ","No forest",-6.80007697,41.85646934,"4 - UTM10x10 + Centroid",580
"Q-P10129",-0.023467561541756,0.0324862757904991,"14","V32",5,210129,113,9771,"29TPG93","29TPG9732",7230,680,"Bragança: Palácios","PT","ATL_COAST","N_DUNES",100,"NNE",72,2,"4207c","Galio aparinellae-Anthriscetum caucalidis","Gonçalves Aguiar, C.F.","2000","Flora e vegetação da Serra de Nogueira e do Parque Natural de Montesinho","Universidade Técnica de Lisboa. Inst. Superior de Agronomia. pp."," V32   ","No forest",-6.657940453,41.81817926,"3 - UTM10x10 + Elevation",680
"Q-P10130",-0.0189288685560003,0.0219522786865524,"19","V32",5,210130,113,10101,"29TPG93","29TPG9632",7231,660,"Bragança: Babe, Pelame","PT","ATL_COAST","N_DUNES",100,"S",18,10,"4207c","Galio aparinellae-Anthriscetum caucalidis","Gonçalves Aguiar, C.F.","2000","Flora e vegetação da Serra de Nogueira e do Parque Natural de Montesinho","Universidade Técnica de Lisboa. Inst. Superior de Agronomia. pp."," V32   ","No forest",-6.695623018,41.8872091,"3 - UTM10x10 + Elevation",660
"Q-P10132",-0.207720495709851,1.10197478982921,"4","V",5,210132,112,9853,"29TPG93","29TPG9536",7232,550,"Bragança: Labiados","PT","ATL_COAST","N_DUNES",90,"NW",NA,NA,"2174","Anogrammo leptophyllae-Parietarietum lusitanicae","Gonçalves Aguiar, C.F.","2000","Flora e vegetação da Serra de Nogueira e do Parque Natural de Montesinho","Universidade Técnica de Lisboa. Inst. Superior de Agronomia. pp."," V     ","No forest",-6.61857634,41.83535117,"4 - UTM10x10 + Centroid",550
"Q-P10151",-0.0353183216256095,-0.0224488934866373,"6","V15",4,210151,105,11511,"29TPG84","29TPG8545",7251,1020,"Bragança: Montesinho, imediatamente a Norte da aldeia","PT","ATL_COAST","N_DUNES",60,"",NA,12,"7020","Comunidad de Ornithogalum concinnum y Agrostis truncatula subps. commista","Gonçalves Aguiar, C.F.","2000","Flora e vegetação da Serra de Nogueira e do Parque Natural de Montesinho","Universidade Técnica de Lisboa. Inst. Superior de Agronomia. pp."," V15   ","No forest",-6.746470029,41.93238379,"3 - UTM10x10 + Elevation",1020
