"SIVIMID","NMDS1","NMDS2","EUNIS","Class","Relevé.number","Temp","Precip","UTM10X10","UTM1X1","JuiceID","OriginalElevation","Locality","Country","ECOREG_WWF","DUNES_BOHN","Plant.Cover","Aspect","Slope","Area","SintaxonID","Sintaxon","Authors","Year","Title","Publication","EUNIS2020","Type","DEG_LON","DEG_LAT","Accuracy","Elevation","Twinspan1","Twinspan2"
"P-P22132",-0.00169858255547166,0.00129369624494689,"V",5,122132,NA,NA,"30TXP31","",6266,5,"France. Pyrenées-Atlantiques, Briscous, ouest d'Etchecolou","FR","ATL_COAST","N_DUNES",80,"",0,400,"9215","Allio vineale-Ranunculetum sardoi","Lazare, J.J.","2005","Miscellanées phytosociologiques.","J. Bot. Soc. Bot. France 31:"," V     ","No forest",-1.319948701,43.43290349,"3 - UTM10x10 + Elevation",5,"Weeds (V15)","Weeds (V15)"
"Q-P02779",0.00394404867998808,-0.00590240223399481,"?",1,202779,145,12079,"30TVP31","",6272,NA,"Santander","","ATL_COAST","N_DUNES",NA,"",NA,20,"93","Oxalido-Parietarietum","Rivas Martínez, S.","1969","Vegetatio Hispaniae. Notula I."," Publ. Inst. Biol. Apl., XLVI: 5-34.","      ?","No forest",-3.821186692,43.46727446,"4 - UTM10x10 + Centroid",21,"Walls","Walls"
"Q-P02783",0.00168331311434613,-0.00534497081812114,"V15",4,202783,102,11203,"30TVN26","",6275,NA,"Piquio (Santander)","","ATL_COAST","N_DUNES",NA,"",NA,10,"93","Oxalido-Parietarietum","Rivas Martínez, S.","1969","Vegetatio Hispaniae. Notula I."," Publ. Inst. Biol. Apl., XLVI: 5-34."," V15   ","No forest",-3.919741838,43.03362154,"4 - UTM10x10 + Centroid",839,"Walls","Weeds (V15)"
"Q-P02785",0.00637490515889061,-0.00501018463084358,"?",1,202785,122,15444,"30TWN68","",6277,NA,"Cestona (Guipúzcoa)","","ATL_COAST","N_DUNES",NA,"",NA,20,"772","Centrantho-Hypericetum hircini","Rivas Martínez, S.","1969","Vegetatio Hispaniae. Notula I."," Publ. Inst. Biol. Apl., XLVI: 5-34.","      ?","No forest",-2.198835209,43.21460969,"4 - UTM10x10 + Centroid",313,"Walls","Walls"
"Q-P02786",0.00587567479942965,-0.00507040689295474,"?",1,202786,122,15444,"30TWN68","",6278,NA,"De Zumaya a Cestona (Guipúzcoa)","","ATL_COAST","N_DUNES",NA,"",NA,10,"772","Centrantho-Hypericetum hircini","Rivas Martínez, S.","1969","Vegetatio Hispaniae. Notula I."," Publ. Inst. Biol. Apl., XLVI: 5-34.","      ?","No forest",-2.198835209,43.21460969,"4 - UTM10x10 + Centroid",313,"Walls","Walls"
"Q-P02788",0.00742131613768362,-0.00524199694107214,"?",1,202788,138,16126,"30TWN69","",6280,NA,"Zarauz (Guipúzcoa)","","ATL_COAST","N_DUNES",NA,"",NA,10,"772","Centrantho-Hypericetum hircini","Rivas Martínez, S.","1969","Vegetatio Hispaniae. Notula I."," Publ. Inst. Biol. Apl., XLVI: 5-34.","      ?","No forest",-2.204357764,43.28045619,"4 - UTM10x10 + Centroid",82,"Walls","Walls"
"Q-P02792",0.00490022400325233,-0.00740721618212606,"?",1,202792,137,20371,"29TNH24","",6284,NA,"Catedral de Santiago de Compostela (Coruña)","","ATL_COAST","N_DUNES",NA,"",NA,50,"1582","Cymbalario-Trachelietum caerulei","Rivas Martínez, S.","1969","Vegetatio Hispaniae. Notula I."," Publ. Inst. Biol. Apl., XLVI: 5-34.","      ?","No forest",-8.693960952,42.8571451,"4 - UTM10x10 + Centroid",202,"Walls","Walls"
"Q-P02793",0.00531240365712059,-0.00826121160154202,"?",1,202793,137,20371,"29TNH24","",6285,NA,"Facultad de Farmacia de Santiago de Compostela (Coruña)","","ATL_COAST","N_DUNES",NA,"",NA,50,"1582","Cymbalario-Trachelietum caerulei","Rivas Martínez, S.","1969","Vegetatio Hispaniae. Notula I."," Publ. Inst. Biol. Apl., XLVI: 5-34.","      ?","No forest",-8.693960952,42.8571451,"4 - UTM10x10 + Centroid",202,"Walls","Walls"
"Q-P02794",0.00185324270695293,-0.00530985631774484,"?",1,202794,131,19441,"29TNH25","",6286,NA,"Carretera de Portomouro, Santiago (Coruña)","","ATL_COAST","N_DUNES",NA,"",NA,100,"1582","Cymbalario-Trachelietum caerulei","Rivas Martínez, S.","1969","Vegetatio Hispaniae. Notula I."," Publ. Inst. Biol. Apl., XLVI: 5-34.","      ?","No forest",-8.693537785,42.9471732,"4 - UTM10x10 + Centroid",275,"Walls","Walls"
"Q-P07031",0.00297615250314437,-0.00546556707573529,"?",1,207031,140,12408,"30TUP80","",27655,NA,"La Barquera","ES","ATL_COAST","N_DUNES",NA,"",NA,10,"2048","Parietarietum judaicae","Aedo Perez, Carlos","1985","Estudio de la flora y vegetación de la comarca de San Vicente de la Barquera (Cantabria)."," Memoria de Licenciatura. Universidad de Oviedo. 217","      ?","No forest",-4.419290768,43.36986165,"4 - UTM10x10 + Centroid",59,"Walls","Walls"
"Q-P07042",0.00176265496666182,-0.002727473939057,"V32",5,207042,140,12408,"30TUP80","",27659,NA,"El Rosal","ES","ATL_COAST","Y_DUNES",NA,"",NA,15,"753","Sisymbrio officinalis-Hordeetum murini","Aedo Perez, Carlos","1985","Estudio de la flora y vegetación de la comarca de San Vicente de la Barquera (Cantabria)."," Memoria de Licenciatura. Universidad de Oviedo. 217"," V32   ","No forest",-4.419290768,43.36986165,"4 - UTM10x10 + Centroid",59,"Weeds (V15)","Weeds (V15)"
"Q-P07045",-0.0056341509776229,-0.000681895031744411,"V37",9,207045,140,12408,"30TUP80","",27657,NA,"Abaño","ES","ATL_COAST","N_DUNES",NA,"",NA,20,"2036","Oxalidi latifoliae-Veronicetum persicae","Aedo Perez, Carlos","1985","Estudio de la flora y vegetación de la comarca de San Vicente de la Barquera (Cantabria)."," Memoria de Licenciatura. Universidad de Oviedo. 217"," V37   ","No forest",-4.419290768,43.36986165,"4 - UTM10x10 + Centroid",59,"Weeds (V15)","Weeds (V15)"
"Q-P07050",-0.00378937501327351,0.00333584449820306,"V32",5,207050,140,12408,"30TUP80","",27636,NA,"La Barquera","ES","ATL_COAST","N_DUNES",NA,"",NA,1,"5828","Comunidad de Spergularia boccomii y Sagina apetala","Aedo Perez, Carlos","1985","Estudio de la flora y vegetación de la comarca de San Vicente de la Barquera (Cantabria)."," Memoria de Licenciatura. Universidad de Oviedo. 217"," V32   ","No forest",-4.419290768,43.36986165,"4 - UTM10x10 + Centroid",59,"Trampled (V35)","Trampled (V35)"
"Q-P07051",-0.00339668372678471,0.00330881796095546,"V32",5,207051,140,12408,"30TUP80","",27637,NA,"El Rosal","ES","ATL_COAST","N_DUNES",NA,"",NA,2,"5828","Comunidad de Spergularia boccomii y Sagina apetala","Aedo Perez, Carlos","1985","Estudio de la flora y vegetación de la comarca de San Vicente de la Barquera (Cantabria)."," Memoria de Licenciatura. Universidad de Oviedo. 217"," V32   ","No forest",-4.419290768,43.36986165,"4 - UTM10x10 + Centroid",59,"Trampled (V35)","Trampled (V35)"
"Q-P07736",-0.0044298881886987,0.0050447746487128,"V",5,207736,132,11189,"29TPJ52","",27721,NA,"Zona de cereales de Castropol","ES","ATL_COAST","N_DUNES",NA,"",NA,NA,"0","Associació-Desconeguda","Guinea López, Emilio","1953","Geografia botánica de Santander."," Publicaciones diputación provincial de Santander. 412"," V     ","No forest",-7.089128404,43.53843902,"4 - UTM10x10 + Centroid",40,"Weeds (V15)","Weeds (V15)"
"Q-P07737",-0.00329163228276838,0.00121119225253127,"V15",4,207737,132,11189,"29TPJ52","",27722,NA,"Zona de cereales de Castropol","ES","ATL_COAST","N_DUNES",NA,"",NA,NA,"0","Associació-Desconeguda","Guinea López, Emilio","1953","Geografia botánica de Santander."," Publicaciones diputación provincial de Santander. 412"," V15   ","No forest",-7.089128404,43.53843902,"4 - UTM10x10 + Centroid",40,"Weeds (V15)","Weeds (V15)"
"Q-P07763",0.000370707348237454,-0.00156527870050054,"V37",9,207763,137,14078,"30TVP41","",27610,NA,"Carriazo","ES","ATL_COAST","N_DUNES",NA,"",NA,100,"0","Associació-Desconeguda","Guinea López, Emilio","1953","Geografia botánica de Santander."," Publicaciones diputación provincial de Santander. 412"," V37   ","No forest",-3.665204511,43.46129774,"4 - UTM10x10 + Centroid",43,"Weeds (V15)","Weeds (V15)"
"Q-P07764",0.000684247047268047,-0.00169274689755152,"V15",4,207764,137,14078,"30TVP41","",27611,NA,"Carriazo","ES","ATL_COAST","N_DUNES",NA,"",NA,100,"0","Associació-Desconeguda","Guinea López, Emilio","1953","Geografia botánica de Santander."," Publicaciones diputación provincial de Santander. 412"," V15   ","No forest",-3.665204511,43.46129774,"4 - UTM10x10 + Centroid",43,"Weeds (V15)","Weeds (V15)"
"Q-P07765",0.000767046010892934,-0.000758854252834983,"V37",9,207765,137,14078,"30TVP41","",27612,NA,"Carriazo","ES","ATL_COAST","N_DUNES",NA,"",NA,100,"0","Associació-Desconeguda","Guinea López, Emilio","1953","Geografia botánica de Santander."," Publicaciones diputación provincial de Santander. 412"," V37   ","No forest",-3.665204511,43.46129774,"4 - UTM10x10 + Centroid",43,"Weeds (V15)","Weeds (V15)"
"Q-P07766",0.000629554305983915,-0.00139548054923369,"V37",9,207766,137,14078,"30TVP41","",27613,NA,"Carriazo","ES","ATL_COAST","N_DUNES",NA,"",NA,100,"0","Associació-Desconeguda","Guinea López, Emilio","1953","Geografia botánica de Santander."," Publicaciones diputación provincial de Santander. 412"," V37   ","No forest",-3.665204511,43.46129774,"4 - UTM10x10 + Centroid",43,"Weeds (V15)","Weeds (V15)"
"Q-P07767",0.000399913434063631,-0.000787110147913541,"V37",9,207767,137,14078,"30TVP41","",27614,NA,"Carriazo","ES","ATL_COAST","N_DUNES",NA,"",NA,100,"0","Associació-Desconeguda","Guinea López, Emilio","1953","Geografia botánica de Santander."," Publicaciones diputación provincial de Santander. 412"," V37   ","No forest",-3.665204511,43.46129774,"4 - UTM10x10 + Centroid",43,"Weeds (V15)","Weeds (V15)"
"Q-P07847",-0.00628120537635083,0.00267514512481541,"V",5,207847,139,13435,"30TVP10","",27746,NA,"Estación de Torrelavega","ES","ATL_COAST","N_DUNES",NA,"",NA,NA,"0","Associació-Desconeguda","Guinea López, Emilio","1953","Geografia botánica de Santander."," Publicaciones diputación provincial de Santander. 412"," V     ","No forest",-4.047456892,43.39183754,"4 - UTM10x10 + Centroid",49,"Weeds (V15)","Weeds (V15)"
"Q-P07849",0.0017548271693361,0.00425016083390862,"V15",4,207849,94,7976,"30TVN04","",27748,NA,"Parte occidental de Mataporquera","ES","ATL_COAST","N_DUNES",NA,"",NA,NA,"0","Associació-Desconeguda","Guinea López, Emilio","1953","Geografia botánica de Santander."," Publicaciones diputación provincial de Santander. 412"," V15   ","No forest",-4.116472128,42.87622565,"4 - UTM10x10 + Centroid",999.5,"Weeds (V15)","Weeds (V15)"
"Q-P07850",0.00180508018439073,0.00427860502433535,"V",5,207850,94,7976,"30TVN04","",27704,NA,"Parte occidental de Mataporquera","ES","ATL_COAST","N_DUNES",NA,"",NA,NA,"0","Associació-Desconeguda","Guinea López, Emilio","1953","Geografia botánica de Santander."," Publicaciones diputación provincial de Santander. 412"," V     ","No forest",-4.116472128,42.87622565,"4 - UTM10x10 + Centroid",999.5,"Weeds (V15)","Weeds (V15)"
"Q-P07851",0.00218330337692468,0.00431205889993081,"V15",4,207851,94,7976,"30TVN04","",27705,NA,"Parte occidental de Mataporquera","ES","ATL_COAST","N_DUNES",NA,"",NA,NA,"0","Associació-Desconeguda","Guinea López, Emilio","1953","Geografia botánica de Santander."," Publicaciones diputación provincial de Santander. 412"," V15   ","No forest",-4.116472128,42.87622565,"4 - UTM10x10 + Centroid",999.5,"Weeds (V15)","Weeds (V15)"
"Q-P07852",0.00265634661947934,0.00475263075421916,"V15",4,207852,94,7976,"30TVN04","",27706,NA,"Parte occidental de Mataporquera","ES","ATL_COAST","N_DUNES",NA,"",NA,NA,"0","Associació-Desconeguda","Guinea López, Emilio","1953","Geografia botánica de Santander."," Publicaciones diputación provincial de Santander. 412"," V15   ","No forest",-4.116472128,42.87622565,"4 - UTM10x10 + Centroid",999.5,"Weeds (V15)","Weeds (V15)"
"Q-P07905",0.0029637864014519,0.00618482223194303,"?",5,207905,137,14476,"30TVP20","",27715,NA,"Dunas de Mogro","ES","ATL_COAST","Y_DUNES",NA,"",NA,NA,"0","Associació-Desconeguda","Guinea López, Emilio","1953","Geografia botánica de Santander."," Publicaciones diputación provincial de Santander. 412","      ?","No forest",-3.924415113,43.39322181,"4 - UTM10x10 + Centroid",64,"Trampled (V35)","Trampled (V35)"
"Q-P08150",-0.000556068266730837,0.00504460168671937,"V35",8,208150,145,NA,"29TNF35","29TNF3853",6398,40,"Miradouro do Garajau","PT","ATL_COAST","N_DUNES",NA,"",NA,1,"5639","Polycarpo tetraphylli-Coronopodetum squamati","Costa, J.C.; Capelo, J.; Jardim, R.; Sequeira, M.; Espírito-Santo, D.; Lousã, M. ; Fontinha, S.; Aguiar, C. & Rivas-Martínez, S.","2004","Catálogo sintaxonómico e florístico das comunidades vegetais da Madeira e Porto Santo In A paisagem vegetal da Ilha da Madeira","Quercetea, 6:"," V35   ","No forest",-8.555662357,41.10094791,"3 - UTM10x10 + Elevation",40,"Trampled (V35)","Trampled (V35)"
"Q-P08170",0.00117008182005326,-0.00578747829785243,"V32",5,208170,145,11357,"29TNF35","29TNF3853",6399,350,"Miradouro da Fajã dos Padres","PT","ATL_COAST","N_DUNES",NA,"S",NA,2,"5630","Chenopodio muralis-Malvetum parviflorae","Costa, J.C.; Capelo, J.; Jardim, R.; Sequeira, M.; Espírito-Santo, D.; Lousã, M. ; Fontinha, S.; Aguiar, C. & Rivas-Martínez, S.","2004","Catálogo sintaxonómico e florístico das comunidades vegetais da Madeira e Porto Santo In A paisagem vegetal da Ilha da Madeira","Quercetea, 6:"," V32   ","No forest",-8.583023967,41.14560961,"4 - UTM10x10 + Centroid",350,"Weeds (V15)","Weeds (V15)"
"Q-P08361",0.00114463992804567,-0.00578998429078086,"V32",5,208361,145,11357,"29TNF35","29TNF3853",6412,350,"Miradouro da Fajã dos Padres","PT","ATL_COAST","N_DUNES",NA,"S",NA,2,"5630","Chenopodio muralis-Malvetum parviflorae","Espírito-Santo, M.D.; Costa, J.C.; Jardim, R. & Sequeira, M.","2003","2. Vegetação da Madeira VI: comunidades nitrófilas dos campos agrícolas, dos pousios e das suas margens. In Notas do Herbário do Estação Florestal Nacional (LISFA): Fasc. XVIII"," Silva Lusitanita 11(2):"," V32   ","No forest",-8.583023967,41.14560961,"4 - UTM10x10 + Centroid",350,"Weeds (V15)","Weeds (V15)"
"Q-P08687",0.00348285981646596,0.00288455846756941,"V32",5,208687,86,11634,"30TUN65","",6843,1160,"Santibañez de Resoba","ES","ATL_COAST","N_DUNES",100,"",NA,15,"L204","Alliarion petiolatae","García González, M.E.","1990","Flora y vegetación de la sierra del Brezo y de la comarca de la Peña (Palencia)","Tesis Doct."," V32   ","No forest",-4.602567992,42.90454586,"3 - UTM10x10 + Elevation",1160,"Mesic ruderals (V39)","Mesic ruderals (V39)"
"Q-P08735",0.000236631386147781,0.00387108046407439,"V15",4,208735,91,8632,"30TUN74","",6633,1090,"Cantoral de la Peña","ES","ATL_COAST","N_DUNES",100,"",NA,40,"2890","Centaureo cyani-Raphanetum microcarpae","García González, M.E.","1990","Flora y vegetación de la sierra del Brezo y de la comarca de la Peña (Palencia)","Tesis Doct."," V15   ","No forest",-4.490192325,42.81601335,"3 - UTM10x10 + Elevation",1090,"Weeds (V15)","Weeds (V15)"
"Q-P08736",-0.00301861032434344,0.000865488087519831,"V15",4,208736,91,8826,"30TUN74","",6634,1040,"Cantoral de la Peña","ES","ATL_COAST","N_DUNES",100,"",NA,40,"2890","Centaureo cyani-Raphanetum microcarpae","García González, M.E.","1990","Flora y vegetación de la sierra del Brezo y de la comarca de la Peña (Palencia)","Tesis Doct."," V15   ","No forest",-4.509713355,42.81395656,"3 - UTM10x10 + Elevation",1040,"Weeds (V15)","Weeds (V15)"
"Q-P08737",-0.000429384697378351,0.00483547331489682,"V15",4,208737,92,9861,"30TUN64","",6635,1120,"Pisón de Castrejón","ES","ATL_COAST","N_DUNES",80,"",NA,40,"2890","Centaureo cyani-Raphanetum microcarpae","García González, M.E.","1990","Flora y vegetación de la sierra del Brezo y de la comarca de la Peña (Palencia)","Tesis Doct."," V15   ","No forest",-4.675998898,42.81164292,"3 - UTM10x10 + Elevation",1120,"Weeds (V15)","Weeds (V15)"
"Q-P08738",-0.00341445377457656,0.00131014666473195,"V15",4,208738,90,8902,"30TUN74","",6636,1110,"Arroyo de Candenosa","ES","ATL_COAST","N_DUNES",40,"",NA,40,"2890","Centaureo cyani-Raphanetum microcarpae","García González, M.E.","1990","Flora y vegetación de la sierra del Brezo y de la comarca de la Peña (Palencia)","Tesis Doct."," V15   ","No forest",-4.504996992,42.82122277,"3 - UTM10x10 + Elevation",1110,"Weeds (V15)","Weeds (V15)"
"Q-P08739",-0.00492432161446797,-0.0023816317811338,"V15",4,208739,72,10615,"30TUN55","",6637,1020,"Camporredondo de Alba","ES","ATL_COAST","N_DUNES",50,"",NA,80,"2890","Centaureo cyani-Raphanetum microcarpae","García González, M.E.","1990","Flora y vegetación de la sierra del Brezo y de la comarca de la Peña (Palencia)","Tesis Doct."," V15   ","No forest",-4.77611585,42.9334869,"4 - UTM10x10 + Centroid",1020,"Weeds (V15)","Weeds (V15)"
"Q-P08740",0.0014589845984243,0.00306372889468062,"V15",4,208740,70,9161,"30TUN74","",6638,970,"Cervera de Pisuerga","ES","ATL_COAST","N_DUNES",100,"",NA,20,"2890","Centaureo cyani-Raphanetum microcarpae","García González, M.E.","1990","Flora y vegetación de la sierra del Brezo y de la comarca de la Peña (Palencia)","Tesis Doct."," V15   ","No forest",-4.528495991,42.84729103,"4 - UTM10x10 + Centroid",970,"Mesic ruderals (V39)","Mesic ruderals (V39)"
"Q-P08741",-0.00309343786669506,0.0010967210428437,"V15",4,208741,91,11860,"30TUN64","",6639,1130,"Castrejón de la Peña","ES","ATL_COAST","N_DUNES",50,"",NA,20,"2890","Centaureo cyani-Raphanetum microcarpae","García González, M.E.","1990","Flora y vegetación de la sierra del Brezo y de la comarca de la Peña (Palencia)","Tesis Doct."," V15   ","No forest",-4.61429613,42.88457007,"3 - UTM10x10 + Elevation",1130,"Weeds (V15)","Weeds (V15)"
"Q-P08742",0.00355068963537408,0.00272562789462324,"V37",9,208742,92,9527,"30TUN64","",6640,1120,"Castrejón de la Peña","ES","ATL_COAST","N_DUNES",100,"",NA,20,"753","Sisymbrio officinalis-Hordeetum murini","García González, M.E.","1990","Flora y vegetación de la sierra del Brezo y de la comarca de la Peña (Palencia)","Tesis Doct."," V37   ","No forest",-4.646560297,42.80846808,"3 - UTM10x10 + Elevation",1120,"Mesic ruderals (V39)","Mesic ruderals (V39)"
"Q-P08743",0.00366487514674342,0.00351207024114914,"V37",9,208743,93,10479,"30TUN54","",6641,1100,"Santibañez de la Peña","ES","ATL_COAST","N_DUNES",100,"",NA,12,"753","Sisymbrio officinalis-Hordeetum murini","García González, M.E.","1990","Flora y vegetación de la sierra del Brezo y de la comarca de la Peña (Palencia)","Tesis Doct."," V37   ","No forest",-4.741715289,42.79985585,"3 - UTM10x10 + Elevation",1100,"Mesic ruderals (V39)","Mesic ruderals (V39)"
"Q-P08744",0.00345276516657077,0.00304401705059724,"V37",9,208744,88,11599,"30TUN44","",6612,1200,"Velilla del rio Carrión","ES","ATL_COAST","N_DUNES",100,"",NA,18,"753","Sisymbrio officinalis-Hordeetum murini","García González, M.E.","1990","Flora y vegetación de la sierra del Brezo y de la comarca de la Peña (Palencia)","Tesis Doct."," V37   ","No forest",-4.946753488,42.86499029,"3 - UTM10x10 + Elevation",1200,"Mesic ruderals (V39)","Mesic ruderals (V39)"
"Q-P08747",0.00533122449015285,0.00106155197455726,"V",11,208747,91,9134,"30TUN74","",6643,1000,"Cervera de Pisuerga","ES","ATL_COAST","N_DUNES",100,"",NA,20,"856","Urtico dioicae-Sambucetum ebuli","García González, M.E.","1990","Flora y vegetación de la sierra del Brezo y de la comarca de la Peña (Palencia)","Tesis Doct."," V     ","No forest",-4.504036138,42.88246998,"3 - UTM10x10 + Elevation",1000,"Mesic ruderals (V39)","Mesic ruderals (V39)"
"Q-P08750",0.00393632782548962,-0.000572252550754505,"V39",11,208750,90,9080,"30TUN74","",6646,1000,"Cervera de Pisuerga","ES","ATL_COAST","N_DUNES",100,"S",10,40,"742","Galio aparines-Conietum maculati","García González, M.E.","1990","Flora y vegetación de la sierra del Brezo y de la comarca de la Peña (Palencia)","Tesis Doct."," V39   ","No forest",-4.514005163,42.88954259,"3 - UTM10x10 + Elevation",1000,"Mesic ruderals (V39)","Mesic ruderals (V39)"
"Q-P08751",0.00643472529441661,0.000882042741722325,"V39",11,208751,90,8353,"30TUN75","",6647,1070,"San Martín de los Herreros","ES","ATL_COAST","N_DUNES",80,"",NA,12,"742","Galio aparines-Conietum maculati","García González, M.E.","1990","Flora y vegetación de la sierra del Brezo y de la comarca de la Peña (Palencia)","Tesis Doct."," V39   ","No forest",-4.534039347,42.90728585,"3 - UTM10x10 + Elevation",1070,"Mesic ruderals (V39)","Mesic ruderals (V39)"
"Q-P08752",0.00377451777805587,-0.000380569256889268,"V39",11,208752,81,10644,"30TUN65","",6648,1300,"Triollo","ES","ATL_COAST","N_DUNES",90,"",NA,20,"3907","Geranio robertiani-Cariolophetum sempervirentis","García González, M.E.","1990","Flora y vegetación de la sierra del Brezo y de la comarca de la Peña (Palencia)","Tesis Doct."," V39   ","No forest",-4.67882657,42.91605961,"3 - UTM10x10 + Elevation",1300,"Mesic ruderals (V39)","Mesic ruderals (V39)"
"Q-P08754",0.00717036592763792,0.00451280903740902,"V38",10,208754,84,9829,"30TUN64","",6650,1250,"Fuente Colorada","ES","ATL_COAST","N_DUNES",40,"N",5,20,"2268a,,,,,GGM3","","","","",""," V38   ","No forest",-4.666943542,42.83879034,"3 - UTM10x10 + Elevation",1250,"Xeric ruderals (V38)","Xeric ruderals (V38)"
"Q-P08755",0.00568275583330092,0.00290042068984343,"V38",10,208755,80,9366,"30TUN55","",6651,1240,"Camporredondo de Alba","ES","ATL_COAST","N_DUNES",70,"",NA,70,"2268c,,,,,GGM3","","","","",""," V38   ","No forest",-4.749295633,42.89519337,"3 - UTM10x10 + Elevation",1240,"Xeric ruderals (V38)","Xeric ruderals (V38)"
"Q-P08756",0.00575830308989443,0.00465431566324582,"V38",10,208756,78,10643,"30TUN64","",6652,1330,"Brañosera","ES","ATL_COAST","N_DUNES",60,"N",5,350,"2268c,,,,,GGM3","","","","",""," V38   ","No forest",-4.677118412,42.85304978,"3 - UTM10x10 + Elevation",1330,"Xeric ruderals (V38)","Xeric ruderals (V38)"
"Q-P08758",0.00649988802908632,0.00312582738727911,"V38",10,208758,91,9584,"30TUN64","",6653,1130,"Traspeña de la Peña","ES","ATL_COAST","N_DUNES",80,"",NA,100,"2165d","Carduo carpetani-Onopordetum acanthii","García González, M.E.","1990","Flora y vegetación de la sierra del Brezo y de la comarca de la Peña (Palencia)","Tesis Doct."," V38   ","No forest",-4.66851798,42.80634914,"3 - UTM10x10 + Elevation",1130,"Xeric ruderals (V38)","Xeric ruderals (V38)"
"Q-P08760",0.00660789343335173,0.00329103682746934,"V38",10,208760,89,9763,"30TUN74","",6654,1000,"Cervera de Pisuerga","ES","ATL_COAST","N_DUNES",80,"",NA,50,"6273","Comunidad de Cirsium richterianum","García González, M.E.","1990","Flora y vegetación de la sierra del Brezo y de la comarca de la Peña (Palencia)","Tesis Doct."," V38   ","No forest",-4.498878138,42.87173158,"3 - UTM10x10 + Elevation",1000,"Xeric ruderals (V38)","Xeric ruderals (V38)"
"Q-P08761",0.00596625392820105,0.00335459763988736,"V38",10,208761,91,10518,"30TUN74","",6655,1050,"Embalse de Ruesga","ES","ATL_COAST","N_DUNES",80,"",NA,40,"6273","Comunidad de Cirsium richterianum","García González, M.E.","1990","Flora y vegetación de la sierra del Brezo y de la comarca de la Peña (Palencia)","Tesis Doct."," V38   ","No forest",-4.550416473,42.87644814,"3 - UTM10x10 + Elevation",1050,"Xeric ruderals (V38)","Xeric ruderals (V38)"
"Q-P08762",0.00831596573865731,0.00374336947854299,"V38",10,208762,90,8858,"30TUN75","",6656,1070,"Ermita de San Roque","ES","ATL_COAST","N_DUNES",80,"",NA,20,"6273","Comunidad de Cirsium richterianum","García González, M.E.","1990","Flora y vegetación de la sierra del Brezo y de la comarca de la Peña (Palencia)","Tesis Doct."," V38   ","No forest",-4.543611372,42.89815216,"3 - UTM10x10 + Elevation",1070,"Xeric ruderals (V38)","Xeric ruderals (V38)"
"Q-P08763",0.00623064254633437,0.00222838284805877,"V38",10,208763,70,9161,"30TUN74","",6657,970,"Cervera de Pisuerga","ES","ATL_COAST","N_DUNES",60,"",NA,10,"6273","Comunidad de Cirsium richterianum","García González, M.E.","1990","Flora y vegetación de la sierra del Brezo y de la comarca de la Peña (Palencia)","Tesis Doct."," V38   ","No forest",-4.528495991,42.84729103,"4 - UTM10x10 + Centroid",970,"Xeric ruderals (V38)","Xeric ruderals (V38)"
"Q-P08764",0.00637690072787317,0.00361576264024062,"V38",10,208764,89,9449,"30TUN74","",6658,1100,"Arroyo de Candenosa","ES","ATL_COAST","N_DUNES",80,"",NA,100,"6273","Comunidad de Cirsium richterianum","García González, M.E.","1990","Flora y vegetación de la sierra del Brezo y de la comarca de la Peña (Palencia)","Tesis Doct."," V38   ","No forest",-4.527275081,42.83173387,"3 - UTM10x10 + Elevation",1100,"Xeric ruderals (V38)","Xeric ruderals (V38)"
"Q-P08765",0.0063979037104416,0.0033614080967696,"V38",10,208765,92,10186,"30TUN64","",6659,1080,"Cubillo de Castrejón","ES","ATL_COAST","N_DUNES",80,"",NA,100,"6273","Comunidad de Cirsium richterianum","García González, M.E.","1990","Flora y vegetación de la sierra del Brezo y de la comarca de la Peña (Palencia)","Tesis Doct."," V38   ","No forest",-4.69316451,42.81319133,"3 - UTM10x10 + Elevation",1080,"Xeric ruderals (V38)","Xeric ruderals (V38)"
"Q-P08766",0.00707524333577559,0.00369599484129585,"V38",10,208766,92,9494,"30TUN64","",6660,1120,"Traspeña de la Peña","ES","ATL_COAST","N_DUNES",80,"",NA,50,"6273","Comunidad de Cirsium richterianum","García González, M.E.","1990","Flora y vegetación de la sierra del Brezo y de la comarca de la Peña (Palencia)","Tesis Doct."," V38   ","No forest",-4.648957603,42.80663255,"3 - UTM10x10 + Elevation",1120,"Xeric ruderals (V38)","Xeric ruderals (V38)"
"Q-P08767",0.00628429207328529,0.00333123673480584,"V38",10,208767,92,9586,"30TUN64","",6661,1120,"Tarilonte de la Peña","ES","ATL_COAST","N_DUNES",100,"",NA,40,"6273","Comunidad de Cirsium richterianum","García González, M.E.","1990","Flora y vegetación de la sierra del Brezo y de la comarca de la Peña (Palencia)","Tesis Doct."," V38   ","No forest",-4.668372809,42.80094819,"3 - UTM10x10 + Elevation",1120,"Xeric ruderals (V38)","Xeric ruderals (V38)"
"Q-P08768",0.00628212470308541,0.00323141475848761,"V38",10,208768,88,9395,"30TUN74","",6662,1020,"Embalse de Ruesga","ES","ATL_COAST","N_DUNES",80,"",NA,60,"6273","Comunidad de Cirsium richterianum","García González, M.E.","1990","Flora y vegetación de la sierra del Brezo y de la comarca de la Peña (Palencia)","Tesis Doct."," V38   ","No forest",-4.491578057,42.87362795,"3 - UTM10x10 + Elevation",1020,"Xeric ruderals (V38)","Xeric ruderals (V38)"
"Q-P08769",-0.00129271490861183,0.00364489311349348,"V35",8,208769,91,10160,"30TUN74","",6663,1030,"Cervera de Pisuerga","ES","ATL_COAST","N_DUNES",40,"",NA,1,"2873a","Polygono-Matricarietum matricarioidis","García González, M.E.","1990","Flora y vegetación de la sierra del Brezo y de la comarca de la Peña (Palencia)","Tesis Doct."," V35   ","No forest",-4.575170475,42.88691619,"3 - UTM10x10 + Elevation",1030,"Trampled (V35)","Trampled (V35)"
"Q-P08770",-0.00131614650298681,0.00385468175415558,"V35",8,208770,81,9760,"30TUN55","",6664,1240,"Camporredondo de Alba","ES","ATL_COAST","N_DUNES",80,"",NA,8,"2873a","Polygono-Matricarietum matricarioidis","García González, M.E.","1990","Flora y vegetación de la sierra del Brezo y de la comarca de la Peña (Palencia)","Tesis Doct."," V35   ","No forest",-4.761486489,42.8932054,"3 - UTM10x10 + Elevation",1240,"Trampled (V35)","Trampled (V35)"
"Q-P08771",-0.00105080542278686,0.00358249094894726,"V35",8,208771,77,9288,"30TUN65","",6665,1300,"Triollo","ES","ATL_COAST","N_DUNES",60,"",NA,4,"2873a","Polygono-Matricarietum matricarioidis","García González, M.E.","1990","Flora y vegetación de la sierra del Brezo y de la comarca de la Peña (Palencia)","Tesis Doct."," V35   ","No forest",-4.609727536,42.8972414,"3 - UTM10x10 + Elevation",1300,"Trampled (V35)","Trampled (V35)"
"Q-P08772",-0.00135731099614944,0.00384758417957083,"V35",8,208772,92,10201,"30TUN74","",6666,1040,"Cantoral de la Peña","ES","ATL_COAST","N_DUNES",30,"",NA,10,"2873a","Polygono-Matricarietum matricarioidis","García González, M.E.","1990","Flora y vegetación de la sierra del Brezo y de la comarca de la Peña (Palencia)","Tesis Doct."," V35   ","No forest",-4.550506646,42.88004893,"3 - UTM10x10 + Elevation",1040,"Trampled (V35)","Trampled (V35)"
"Q-P08773",-0.00200084561705209,0.00348309884504936,"V35",8,208773,81,12248,"30TUN54","",6667,1330,"Valcovero","ES","ATL_COAST","N_DUNES",40,"",NA,2,"2873a","Polygono-Matricarietum matricarioidis","García González, M.E.","1990","Flora y vegetación de la sierra del Brezo y de la comarca de la Peña (Palencia)","Tesis Doct."," V35   ","No forest",-4.805345737,42.88531803,"3 - UTM10x10 + Elevation",1330,"Trampled (V35)","Trampled (V35)"
"Q-P08774",-0.00212205433518687,0.00388742057600214,"V35",8,208774,92,10302,"30TUN74","",6642,990,"Cervera de Pisuerga","ES","ATL_COAST","N_DUNES",60,"",NA,5,"2873b","Polygono-Matricarietum matricarioidis","García González, M.E.","1990","Flora y vegetación de la sierra del Brezo y de la comarca de la Peña (Palencia)","Tesis Doct."," V35   ","No forest",-4.518195682,42.86067093,"3 - UTM10x10 + Elevation",990,"Trampled (V35)","Trampled (V35)"
"Q-P09152",0.00335975578190337,1.25271470940014e-05,"V39",11,209152,98,12204,"29TNG75","29TNG7055",6900,1030,"Melgaco, Castro Laboreiro, Coriscadas","PT","ATL_COAST","N_DUNES",NA,"",NA,NA,"6323","Geranio lusitanici-Scrophularietum herminii","Honrado, J.; Alves, P.; Lomba, A.; Rocha, I.; Torres, J.; Ortiz, S. & Barreto Caldas, F.","2004","A new association of perennial nitrophilous vegetation from North-Western Iberian Peninsula.","Acta Botanica Gallica vol. 151(4):"," V39   ","No forest",-8.040051389,42.06645631,"3 - UTM10x10 + Elevation",1030,"Mesic ruderals (V39)","Mesic ruderals (V39)"
"Q-P09153",0.0037859220524702,-0.00173007334648111,"V",11,209153,114,12455,"29TNG73","29TNG7232",6901,1120,"Melgaço, Seara","PT","ATL_COAST","N_DUNES",NA,"",NA,NA,"6323","Geranio lusitanici-Scrophularietum herminii","Honrado, J.; Alves, P.; Lomba, A.; Rocha, I.; Torres, J.; Ortiz, S. & Barreto Caldas, F.","2004","A new association of perennial nitrophilous vegetation from North-Western Iberian Peninsula.","Acta Botanica Gallica vol. 151(4):"," V     ","No forest",-8.125972742,41.84117573,"2 - UTM1x1 + Centroid",1120,"Mesic ruderals (V39)","Mesic ruderals (V39)"
"Q-P09154",0.00333117060940915,-0.0025135549177596,"V38",10,209154,94,12836,"29TNG75","29TNG7154",6902,1050,"Melgaço, Teso","PT","ATL_COAST","N_DUNES",NA,"",NA,NA,"6323","Geranio lusitanici-Scrophularietum herminii","Honrado, J.; Alves, P.; Lomba, A.; Rocha, I.; Torres, J.; Ortiz, S. & Barreto Caldas, F.","2004","A new association of perennial nitrophilous vegetation from North-Western Iberian Peninsula.","Acta Botanica Gallica vol. 151(4):"," V38   ","No forest",-8.142281322,42.04570422,"3 - UTM10x10 + Elevation",1050,"Mesic ruderals (V39)","Mesic ruderals (V39)"
"Q-P09155",0.00594971803892656,-0.00181157355746133,"V38",10,209155,102,14368,"29TNG75","29TNG7051",6903,990,"Melgaço, Curveira","PT","ATL_COAST","N_DUNES",NA,"",NA,NA,"6323","Geranio lusitanici-Scrophularietum herminii","Honrado, J.; Alves, P.; Lomba, A.; Rocha, I.; Torres, J.; Ortiz, S. & Barreto Caldas, F.","2004","A new association of perennial nitrophilous vegetation from North-Western Iberian Peninsula.","Acta Botanica Gallica vol. 151(4):"," V38   ","No forest",-8.062724337,42.07805993,"3 - UTM10x10 + Elevation",990,"Mesic ruderals (V39)","Mesic ruderals (V39)"
"Q-P09156",0.00454158367430941,0.00114182026923876,"V39",11,209156,110,11074,"29TNG94","29TNG9140",6904,850,"Montalegre, Tourém","PT","ATL_COAST","N_DUNES",NA,"",NA,NA,"6323","Geranio lusitanici-Scrophularietum herminii","Honrado, J.; Alves, P.; Lomba, A.; Rocha, I.; Torres, J.; Ortiz, S. & Barreto Caldas, F.","2004","A new association of perennial nitrophilous vegetation from North-Western Iberian Peninsula.","Acta Botanica Gallica vol. 151(4):"," V39   ","No forest",-7.906153316,41.9282218,"3 - UTM10x10 + Elevation",850,"Mesic ruderals (V39)","Mesic ruderals (V39)"
"Q-P09157",0.00481802539360519,0.000664871578518092,"V39",11,209157,103,11097,"29TNG92","29TNG9329",6905,980,"Montalegre, SezelheStª Luzia,","PT","ATL_COAST","N_DUNES",NA,"",NA,NA,"6323","Geranio lusitanici-Scrophularietum herminii","Honrado, J.; Alves, P.; Lomba, A.; Rocha, I.; Torres, J.; Ortiz, S. & Barreto Caldas, F.","2004","A new association of perennial nitrophilous vegetation from North-Western Iberian Peninsula.","Acta Botanica Gallica vol. 151(4):"," V39   ","No forest",-7.890158938,41.81366373,"3 - UTM10x10 + Elevation",980,"Mesic ruderals (V39)","Mesic ruderals (V39)"
"Q-P09159",0.00377915608923328,-0.00194824655987604,"V39",11,209159,129,11633,"29TNF74","29TNF7945",6907,550,"Cinfaes, Ferreiros de Tendais","PT","ATL_COAST","N_DUNES",NA,"",NA,NA,"6323","Geranio lusitanici-Scrophularietum herminii","Honrado, J.; Alves, P.; Lomba, A.; Rocha, I.; Torres, J.; Ortiz, S. & Barreto Caldas, F.","2004","A new association of perennial nitrophilous vegetation from North-Western Iberian Peninsula.","Acta Botanica Gallica vol. 151(4):"," V39   ","No forest",-8.109776323,41.06042424,"3 - UTM10x10 + Elevation",550,"Mesic ruderals (V39)","Mesic ruderals (V39)"
"Q-P09160",0.00368935040123003,-0.000297552462067441,"V38",10,209160,103,12019,"29TNG75","29TNG7053",6908,1000,"Melgaço, between Cainheiras and Casteo Laboreiro","PT","ATL_COAST","N_DUNES",NA,"",NA,NA,"6323","Geranio lusitanici-Scrophularietum herminii","Honrado, J.; Alves, P.; Lomba, A.; Rocha, I.; Torres, J.; Ortiz, S. & Barreto Caldas, F.","2004","A new association of perennial nitrophilous vegetation from North-Western Iberian Peninsula.","Acta Botanica Gallica vol. 151(4):"," V38   ","No forest",-8.043883733,42.08429349,"3 - UTM10x10 + Elevation",1000,"Mesic ruderals (V39)","Mesic ruderals (V39)"
"Q-P09505",0.00468198424574258,-0.00209947178887989,"V38",10,209505,149,13973,"29TNG12","29TNG1123",6382,30,"VIANA DO CASTELO: Afife","PT","ATL_COAST","N_DUNES",NA,"",NA,NA,"6421a","Echio rosulati-Picridetum echioisia","Honrado, J.; Alves, P.; Nepomuceno, H. & Barreto Caldas, F.","2002","XXXIII: Ten new syntaxa from the Miniensean biogeographic subsector (northwestern Portugal). In. Notas do Herbário da Estação Florestal Nacional (LISFA): Fasc. XVI","Silva Lusitana 10(2):"," V38   ","No forest",-8.843430513,41.81580832,"3 - UTM10x10 + Elevation",30,"Xeric ruderals (V38)","Mesic ruderals (V39)"
"Q-P09506",0.00315412004157337,-0.00135276301776945,"V38",10,209506,142,13453,"29TNG50","29TNG5102",6353,190,"BRAGA: Gualtar","PT","ATL_COAST","N_DUNES",NA,"",NA,NA,"6421a","Echio rosulati-Picridetum echioisia","Honrado, J.; Alves, P.; Nepomuceno, H. & Barreto Caldas, F.","2002","XXXIII: Ten new syntaxa from the Miniensean biogeographic subsector (northwestern Portugal). In. Notas do Herbário da Estação Florestal Nacional (LISFA): Fasc. XVI","Silva Lusitana 10(2):"," V38   ","No forest",-8.290880571,41.59419853,"3 - UTM10x10 + Elevation",190,"Xeric ruderals (V38)","Mesic ruderals (V39)"
"Q-P09507",0.00238196296363206,0.00195738396510052,"V38",10,209507,142,13067,"29TNG61","29TNG6814",6383,170,"TERRAS DO BOURO: Vilar da Veiga","PT","ATL_COAST","N_DUNES",NA,"",NA,NA,"6421a","Echio rosulati-Picridetum echioisia","Honrado, J.; Alves, P.; Nepomuceno, H. & Barreto Caldas, F.","2002","XXXIII: Ten new syntaxa from the Miniensean biogeographic subsector (northwestern Portugal). In. Notas do Herbário da Estação Florestal Nacional (LISFA): Fasc. XVI","Silva Lusitana 10(2):"," V38   ","No forest",-8.19947904,41.65059694,"3 - UTM10x10 + Elevation",170,"Xeric ruderals (V38)","Mesic ruderals (V39)"
"Q-P09508",0.00291299253357928,-0.00070888645850828,"V38",10,209508,152,13779,"29TNG22","29TNG2520",6384,10,"PONTE DE LIMA: Between Vila Mou and Lanheses","PT","ATL_COAST","N_DUNES",NA,"",NA,NA,"6421a","Echio rosulati-Picridetum echioisia","Honrado, J.; Alves, P.; Nepomuceno, H. & Barreto Caldas, F.","2002","XXXIII: Ten new syntaxa from the Miniensean biogeographic subsector (northwestern Portugal). In. Notas do Herbário da Estação Florestal Nacional (LISFA): Fasc. XVI","Silva Lusitana 10(2):"," V38   ","No forest",-8.642217634,41.77188901,"3 - UTM10x10 + Elevation",10,"Xeric ruderals (V38)","Mesic ruderals (V39)"
"Q-P09509",0.0020694880270238,-0.00202589738174135,"V38",10,209509,147,14014,"29TNG12","29TNG1122",6385,10,"VIANA DO CASTELO: Afife","PT","ATL_COAST","N_DUNES",NA,"",NA,NA,"6421a","Echio rosulati-Picridetum echioisia","Honrado, J.; Alves, P.; Nepomuceno, H. & Barreto Caldas, F.","2002","XXXIII: Ten new syntaxa from the Miniensean biogeographic subsector (northwestern Portugal). In. Notas do Herbário da Estação Florestal Nacional (LISFA): Fasc. XVI","Silva Lusitana 10(2):"," V38   ","No forest",-8.86443276,41.78232801,"3 - UTM10x10 + Elevation",10,"Xeric ruderals (V38)","Mesic ruderals (V39)"
"Q-P09510",0.0039192827668596,-0.00228040357938414,"V38",10,209510,144,11513,"29TNF35","29TNF3056",6386,70,"PORTO: Campo Alegre","PT","ATL_COAST","N_DUNES",NA,"",NA,NA,"6421b","Echio rosulati-Picridetum echioisia","Honrado, J.; Alves, P.; Nepomuceno, H. & Barreto Caldas, F.","2002","XXXIII: Ten new syntaxa from the Miniensean biogeographic subsector (northwestern Portugal). In. Notas do Herbário da Estação Florestal Nacional (LISFA): Fasc. XVI","Silva Lusitana 10(2):"," V38   ","No forest",-8.559760071,41.14936218,"3 - UTM10x10 + Elevation",70,"Xeric ruderals (V38)","Mesic ruderals (V39)"
"Q-P09511",0.00323319338921717,-0.00270990019004846,"V38",10,209511,141,11529,"29TNF35","29TNF3156",6387,80,"PORTO: Bom Sucesso","PT","ATL_COAST","N_DUNES",NA,"",NA,NA,"6421b","Echio rosulati-Picridetum echioisia","Honrado, J.; Alves, P.; Nepomuceno, H. & Barreto Caldas, F.","2002","XXXIII: Ten new syntaxa from the Miniensean biogeographic subsector (northwestern Portugal). In. Notas do Herbário da Estação Florestal Nacional (LISFA): Fasc. XVI","Silva Lusitana 10(2):"," V38   ","No forest",-8.625035142,41.1605866,"3 - UTM10x10 + Elevation",80,"Xeric ruderals (V38)","Mesic ruderals (V39)"
"Q-P09512",0.00309605551911082,0.00186369610865406,"V38",10,209512,148,11951,"29TNF36","29TNF3366",6388,70,"MAIA: Devesa","PT","ATL_COAST","N_DUNES",NA,"",NA,NA,"6421b","Echio rosulati-Picridetum echioisia","Honrado, J.; Alves, P.; Nepomuceno, H. & Barreto Caldas, F.","2002","XXXIII: Ten new syntaxa from the Miniensean biogeographic subsector (northwestern Portugal). In. Notas do Herbário da Estação Florestal Nacional (LISFA): Fasc. XVI","Silva Lusitana 10(2):"," V38   ","No forest",-8.637550131,41.22298792,"3 - UTM10x10 + Elevation",70,"Xeric ruderals (V38)","Mesic ruderals (V39)"
"Q-P09513",0.00318447860462576,-0.00113729977861518,"V38",10,209513,150,16050,"29TNG35","29TNG3056",6389,70,"PORTO: Campo Alegre","PT","ATL_COAST","N_DUNES",NA,"",NA,NA,"6421b","Echio rosulati-Picridetum echioisia","Honrado, J.; Alves, P.; Nepomuceno, H. & Barreto Caldas, F.","2002","XXXIII: Ten new syntaxa from the Miniensean biogeographic subsector (northwestern Portugal). In. Notas do Herbário da Estação Florestal Nacional (LISFA): Fasc. XVI","Silva Lusitana 10(2):"," V38   ","No forest",-8.631537195,42.06048304,"2 - UTM1x1 + Centroid",70,"Xeric ruderals (V38)","Mesic ruderals (V39)"
"Q-P09810",0.000824924118246698,0.00384209244256204,"V",5,209810,109,10514,"29TPG83","29TPG8535",6943,580,"Bragança: Meixedo, Oleirinhos, junto ao rio Sabor","PT","ATL_COAST","N_DUNES",70,"",NA,4,"2151","Bidenti tripartitae-Polygonetum lapathifolii","Gonçalves Aguiar, C.F.","2000","Flora e vegetação da Serra de Nogueira e do Parque Natural de Montesinho","Universidade Técnica de Lisboa. Inst. Superior de Agronomia. pp."," V     ","No forest",-6.80007697,41.85646934,"4 - UTM10x10 + Centroid",580,"Trampled (V35)","Trampled (V35)"
"Q-P09917",0.00238145045458591,-0.0037056021680045,"V",1,209917,112,10229,"29TPG94","29TPG9745",7036,750,"Bragança: rio de Onor","PT","ATL_COAST","N_DUNES",30,"SE",90,4,"770","Cymbalarietum muralis","Gonçalves Aguiar, C.F.","2000","Flora e vegetação da Serra de Nogueira e do Parque Natural de Montesinho","Universidade Técnica de Lisboa. Inst. Superior de Agronomia. pp."," V     ","No forest",-6.614058215,41.93663371,"1 - UTM1x1 + Elevation",750,"Mesic ruderals (V39)","Walls"
"Q-P09918",0.00110708442966953,-0.005132152515625,"?",1,209918,106,12479,"29TPG74","29TPG7142",7037,800,"Vinhais: Dine","PT","ATL_COAST","N_DUNES",70,"W",90,3,"770","Cymbalarietum muralis","Gonçalves Aguiar, C.F.","2000","Flora e vegetação da Serra de Nogueira e do Parque Natural de Montesinho","Universidade Técnica de Lisboa. Inst. Superior de Agronomia. pp.","      ?","No forest",-6.902707464,41.96319006,"3 - UTM10x10 + Elevation",800,"Walls","Walls"
"Q-P09919",0.0017727668441895,-0.00392020118716811,"?",1,209919,115,10726,"29TPG63","29TPG6335",7038,830,"Vinhais: Lagarelhos","PT","ATL_COAST","N_DUNES",90,"NW",90,2,"770","Cymbalarietum muralis","Gonçalves Aguiar, C.F.","2000","Flora e vegetação da Serra de Nogueira e do Parque Natural de Montesinho","Universidade Técnica de Lisboa. Inst. Superior de Agronomia. pp.","      ?","No forest",-7.068164578,41.83317711,"3 - UTM10x10 + Elevation",830,"Mesic ruderals (V39)","Walls"
"Q-P09920",0.00808560962293979,-0.00249783368500352,"V",1,209920,105,10346,"29TPG72","29TPG7426",7039,840,"Bragança: Carrazedo","PT","ATL_COAST","N_DUNES",60,"NW",90,2,"770","Cymbalarietum muralis","Gonçalves Aguiar, C.F.","2000","Flora e vegetação da Serra de Nogueira e do Parque Natural de Montesinho","Universidade Técnica de Lisboa. Inst. Superior de Agronomia. pp."," V     ","No forest",-6.883145708,41.79997091,"3 - UTM10x10 + Elevation",840,"Mesic ruderals (V39)","Walls"
"Q-P09921",0.00557360489543556,-0.00399971586546965,"V",1,209921,109,10907,"29TPG73","29TPG7837",7040,850,"Bragança: Espinhosela","PT","ATL_COAST","N_DUNES",70,"S",90,1,"771","Parietarietum judaicae","Gonçalves Aguiar, C.F.","2000","Flora e vegetação da Serra de Nogueira e do Parque Natural de Montesinho","Universidade Técnica de Lisboa. Inst. Superior de Agronomia. pp."," V     ","No forest",-6.860724682,41.86736218,"3 - UTM10x10 + Elevation",850,"Walls","Mesic ruderals (V39)"
"Q-P09947",-0.00175376090237632,0.0056279754458023,"V38",10,209947,101,10831,"29TPG84","29TPG8741",7063,990,"Bragança: França","PT","ATL_COAST","N_DUNES",100,"",NA,8,"7008","Comunidad de Carduus carpetanus","Gonçalves Aguiar, C.F.","2000","Flora e vegetação da Serra de Nogueira e do Parque Natural de Montesinho","Universidade Técnica de Lisboa. Inst. Superior de Agronomia. pp."," V38   ","No forest",-6.7732351,41.89548738,"3 - UTM10x10 + Elevation",990,"Weeds (V15)","Weeds (V15)"
"Q-P09948",-0.00100889694136122,0.0022447638406055,"V32",5,209948,109,9500,"29TPG93","29TPG9732",7064,870,"Bragança: Palácios","PT","ATL_COAST","N_DUNES",100,"S",9,10,"7008","Comunidad de Carduus carpetanus","Gonçalves Aguiar, C.F.","2000","Flora e vegetação da Serra de Nogueira e do Parque Natural de Montesinho","Universidade Técnica de Lisboa. Inst. Superior de Agronomia. pp."," V32   ","No forest",-6.611594935,41.85026448,"3 - UTM10x10 + Elevation",870,"Weeds (V15)","Weeds (V15)"
"Q-P09950",-0.000326252297641397,0.00641089367615322,"V38",10,209950,109,11335,"29TPG54","29TPG5245",7066,780,"Vinhais: Vilarinho","PT","ATL_COAST","N_DUNES",90,"",NA,12,"7008","Comunidad de Carduus carpetanus","Gonçalves Aguiar, C.F.","2000","Flora e vegetação da Serra de Nogueira e do Parque Natural de Montesinho","Universidade Técnica de Lisboa. Inst. Superior de Agronomia. pp."," V38   ","No forest",-7.079603721,41.89940303,"3 - UTM10x10 + Elevation",780,"Weeds (V15)","Weeds (V15)"
"Q-P09953",0.0059171681882215,-0.00208814515680747,"V38",10,209953,114,10860,"29TPG63","29TPG6934",7069,760,"Vinhais: Vila Verde, Monte de Cabrões","PT","ATL_COAST","N_DUNES",60,"SE",36,6,"2822","Carlino corymbosae-Carthametum lanati","Gonçalves Aguiar, C.F.","2000","Flora e vegetação da Serra de Nogueira e do Parque Natural de Montesinho","Universidade Técnica de Lisboa. Inst. Superior de Agronomia. pp."," V38   ","No forest",-7.018834242,41.85292547,"3 - UTM10x10 + Elevation",760,"Xeric ruderals (V38)","Mesic ruderals (V39)"
"Q-P09955",0.00265727439180086,-0.00049519578749954,"V32",5,209955,116,10615,"29TPG73","29TPG7533",7071,600,"Bragança: Castrelos","PT","ATL_COAST","N_DUNES",100,"",NA,2,"7009","Comunidad de Carduus pycnocephalus y Carduus tenuiflorus","Gonçalves Aguiar, C.F.","2000","Flora e vegetação da Serra de Nogueira e do Parque Natural de Montesinho","Universidade Técnica de Lisboa. Inst. Superior de Agronomia. pp."," V32   ","No forest",-6.927495113,41.85609022,"3 - UTM10x10 + Elevation",600,"Mesic ruderals (V39)","Mesic ruderals (V39)"
"Q-P09956",0.00160213709810492,0.00181160944545371,"V33",6,209956,111,9930,"29TPG82","29TPG8023",7072,880,"Bragança: Rebordãos, estrada do Castelo","PT","ATL_COAST","N_DUNES",100,"",NA,8,"7009","Comunidad de Carduus pycnocephalus y Carduus tenuiflorus","Gonçalves Aguiar, C.F.","2000","Flora e vegetação da Serra de Nogueira e do Parque Natural de Montesinho","Universidade Técnica de Lisboa. Inst. Superior de Agronomia. pp."," V33   ","No forest",-6.832596758,41.79987008,"3 - UTM10x10 + Elevation",880,"Mesic ruderals (V39)","Mesic ruderals (V39)"
"Q-P09957",0.00476690063339535,0.00112361466195377,"V32",5,209957,116,10282,"29TPG83","29TPG8637",7073,640,"Bragança: Rabal","PT","ATL_COAST","N_DUNES",100,"",NA,6,"7009","Comunidad de Carduus pycnocephalus y Carduus tenuiflorus","Gonçalves Aguiar, C.F.","2000","Flora e vegetação da Serra de Nogueira e do Parque Natural de Montesinho","Universidade Técnica de Lisboa. Inst. Superior de Agronomia. pp."," V32   ","No forest",-6.761711225,41.86344897,"3 - UTM10x10 + Elevation",640,"Mesic ruderals (V39)","Mesic ruderals (V39)"
"Q-P09958",0.00358757028223387,-0.00158054364692413,"V33",6,209958,116,10615,"29TPG73","29TPG7533",7074,600,"Bragança: Castrelos, ponte de Castrelos","PT","ATL_COAST","N_DUNES",100,"",NA,8,"7009","Comunidad de Carduus pycnocephalus y Carduus tenuiflorus","Gonçalves Aguiar, C.F.","2000","Flora e vegetação da Serra de Nogueira e do Parque Natural de Montesinho","Universidade Técnica de Lisboa. Inst. Superior de Agronomia. pp."," V33   ","No forest",-6.927495113,41.85609022,"3 - UTM10x10 + Elevation",600,"Mesic ruderals (V39)","Mesic ruderals (V39)"
"Q-P09959",0.00236707874791352,0.00146438999590493,"V33",6,209959,110,10397,"29TPG63","29TPG6133",7075,760,"Vinhais: Sobreiró-de-Baixo","PT","ATL_COAST","N_DUNES",100,"",NA,10,"7009","Comunidad de Carduus pycnocephalus y Carduus tenuiflorus","Gonçalves Aguiar, C.F.","2000","Flora e vegetação da Serra de Nogueira e do Parque Natural de Montesinho","Universidade Técnica de Lisboa. Inst. Superior de Agronomia. pp."," V33   ","No forest",-6.994015306,41.84118635,"3 - UTM10x10 + Elevation",760,"Mesic ruderals (V39)","Mesic ruderals (V39)"
"Q-P09961",0.00149675780375045,0.00200287272010824,"V32",5,209961,112,9853,"29TPG93","29TPG9536",7077,600,"Bragança: Labiados","PT","ATL_COAST","N_DUNES",100,"",NA,4,"7009","Comunidad de Carduus pycnocephalus y Carduus tenuiflorus","Gonçalves Aguiar, C.F.","2000","Flora e vegetação da Serra de Nogueira e do Parque Natural de Montesinho","Universidade Técnica de Lisboa. Inst. Superior de Agronomia. pp."," V32   ","No forest",-6.61857634,41.83535117,"4 - UTM10x10 + Centroid",600,"Mesic ruderals (V39)","Mesic ruderals (V39)"
"Q-P09962",0.00184569403519384,0.00127258088040637,"V32",5,209962,110,9397,"29TPG93","29TPG9832",7078,820,"Bragança: S. Julião","PT","ATL_COAST","N_DUNES",100,"",NA,8,"7009","Comunidad de Carduus pycnocephalus y Carduus tenuiflorus","Gonçalves Aguiar, C.F.","2000","Flora e vegetação da Serra de Nogueira e do Parque Natural de Montesinho","Universidade Técnica de Lisboa. Inst. Superior de Agronomia. pp."," V32   ","No forest",-6.605977199,41.83603333,"3 - UTM10x10 + Elevation",820,"Mesic ruderals (V39)","Mesic ruderals (V39)"
"Q-P09964",0.00187338326186279,0.00200512867350571,"V33",6,209964,117,11005,"29TPG83","29TPG8936",7080,650,"Bragança: Baçal","PT","ATL_COAST","N_DUNES",100,"",NA,16,"7009","Comunidad de Carduus pycnocephalus y Carduus tenuiflorus","Gonçalves Aguiar, C.F.","2000","Flora e vegetação da Serra de Nogueira e do Parque Natural de Montesinho","Universidade Técnica de Lisboa. Inst. Superior de Agronomia. pp."," V33   ","No forest",-6.736622917,41.88768148,"3 - UTM10x10 + Elevation",650,"Mesic ruderals (V39)","Mesic ruderals (V39)"
"Q-P09965",0.00178955336486546,0.00146684025039752,"V32",5,209965,104,11678,"29TPG74","29TPG7840",7081,850,"Bragança: Vilarinho de Cova de Lua","PT","ATL_COAST","N_DUNES",100,"",NA,8,"7009","Comunidad de Carduus pycnocephalus y Carduus tenuiflorus","Gonçalves Aguiar, C.F.","2000","Flora e vegetação da Serra de Nogueira e do Parque Natural de Montesinho","Universidade Técnica de Lisboa. Inst. Superior de Agronomia. pp."," V32   ","No forest",-6.945049791,41.94553263,"3 - UTM10x10 + Elevation",850,"Mesic ruderals (V39)","Mesic ruderals (V39)"
"Q-P09967",0.00206055557193875,0.00102906199346065,"V32",5,209967,109,10514,"29TPG83","29TPG8535",7082,600,"Bragança: Meixedo, estrada para o Portelo","PT","ATL_COAST","N_DUNES",100,"SW",9,16,"7010","Comunidad de Silybum marianum y Carduus tenuiflorus","Gonçalves Aguiar, C.F.","2000","Flora e vegetação da Serra de Nogueira e do Parque Natural de Montesinho","Universidade Técnica de Lisboa. Inst. Superior de Agronomia. pp."," V32   ","No forest",-6.80007697,41.85646934,"4 - UTM10x10 + Centroid",600,"Mesic ruderals (V39)","Mesic ruderals (V39)"
"Q-P09968",0.00187931749998256,0.00177158783487325,"V32",5,209968,114,9867,"29TPG83","29TPG8637",7083,640,"Bragança: Rabal","PT","ATL_COAST","N_DUNES",100,"",NA,6,"7010","Comunidad de Silybum marianum y Carduus tenuiflorus","Gonçalves Aguiar, C.F.","2000","Flora e vegetação da Serra de Nogueira e do Parque Natural de Montesinho","Universidade Técnica de Lisboa. Inst. Superior de Agronomia. pp."," V32   ","No forest",-6.788335231,41.82475275,"3 - UTM10x10 + Elevation",640,"Mesic ruderals (V39)","Mesic ruderals (V39)"
"Q-P09982",-0.000416322176330796,0.00339142400168904,"V35",8,209982,114,12423,"29TPG54","29TPG5047",7094,750,"Vinhais: Cisterna","PT","ATL_COAST","N_DUNES",70,"",NA,4,"4223","Matricario-Polygonetum avicularis","Gonçalves Aguiar, C.F.","2000","Flora e vegetação da Serra de Nogueira e do Parque Natural de Montesinho","Universidade Técnica de Lisboa. Inst. Superior de Agronomia. pp."," V35   ","No forest",-7.182960705,41.96578556,"2 - UTM1x1 + Centroid",750,"Trampled (V35)","Trampled (V35)"
"Q-P09983",-0.0020193659826739,0.00273022214959084,"V35",8,209983,113,11070,"29TPG63","29TPG6435",7095,790,"Vinhais: rio de Fornos","PT","ATL_COAST","N_DUNES",50,"",NA,5,"4223","Matricario-Polygonetum avicularis","Gonçalves Aguiar, C.F.","2000","Flora e vegetação da Serra de Nogueira e do Parque Natural de Montesinho","Universidade Técnica de Lisboa. Inst. Superior de Agronomia. pp."," V35   ","No forest",-7.053959534,41.87510045,"3 - UTM10x10 + Elevation",790,"Trampled (V35)","Trampled (V35)"
"Q-P09984",-0.000626430323912138,0.00362765139471348,"V35",8,209984,116,10615,"29TPG73","29TPG7533",7070,600,"Bragança: Castrelos","PT","ATL_COAST","N_DUNES",80,"SE",9,1,"4223","Matricario-Polygonetum avicularis","Gonçalves Aguiar, C.F.","2000","Flora e vegetação da Serra de Nogueira e do Parque Natural de Montesinho","Universidade Técnica de Lisboa. Inst. Superior de Agronomia. pp."," V35   ","No forest",-6.927495113,41.85609022,"3 - UTM10x10 + Elevation",600,"Trampled (V35)","Trampled (V35)"
"Q-P09985",-0.00147868257369057,0.00381282788389151,"V35",8,209985,109,10514,"29TPG83","29TPG8637",7097,620,"Bragança: Rabal","PT","ATL_COAST","N_DUNES",40,"",NA,2,"4223","Matricario-Polygonetum avicularis","Gonçalves Aguiar, C.F.","2000","Flora e vegetação da Serra de Nogueira e do Parque Natural de Montesinho","Universidade Técnica de Lisboa. Inst. Superior de Agronomia. pp."," V35   ","No forest",-6.80007697,41.85646934,"4 - UTM10x10 + Centroid",620,"Trampled (V35)","Trampled (V35)"
"Q-P09989",-0.00712337250983541,0.00605151049574277,"V34",7,209989,115,10523,"29TPG83","29TPG8637",7101,640,"Bragança: Rabal","PT","ATL_COAST","N_DUNES",60,"",NA,1,"1731","Crassulo tillaeae-Saginetum apetalae","Gonçalves Aguiar, C.F.","2000","Flora e vegetação da Serra de Nogueira e do Parque Natural de Montesinho","Universidade Técnica de Lisboa. Inst. Superior de Agronomia. pp."," V34   ","No forest",-6.766626048,41.8650886,"3 - UTM10x10 + Elevation",640,"Trampled (V35)","Trampled (V35)"
"Q-P09993",-0.00177129932752899,0.00316610919756925,"V35",8,209993,116,9901,"29TPG93","29TPG9032",7105,640,"Bragança: Vale de Lamas","PT","ATL_COAST","N_DUNES",30,"",NA,3,"1731","Crassulo tillaeae-Saginetum apetalae","Gonçalves Aguiar, C.F.","2000","Flora e vegetação da Serra de Nogueira e do Parque Natural de Montesinho","Universidade Técnica de Lisboa. Inst. Superior de Agronomia. pp."," V35   ","No forest",-6.632766489,41.88381447,"3 - UTM10x10 + Elevation",640,"Trampled (V35)","Trampled (V35)"
"Q-P09995",-0.00475948507920587,0.00355392851486847,"V34",7,209995,112,10173,"29TPG94","29TPG9745",7107,770,"Bragança: rio de Onor","PT","ATL_COAST","N_DUNES",50,"",NA,4,"1731","Crassulo tillaeae-Saginetum apetalae","Gonçalves Aguiar, C.F.","2000","Flora e vegetação da Serra de Nogueira e do Parque Natural de Montesinho","Universidade Técnica de Lisboa. Inst. Superior de Agronomia. pp."," V34   ","No forest",-6.613956586,41.93483594,"1 - UTM1x1 + Elevation",770,"Trampled (V35)","Trampled (V35)"
"Q-P09996",-0.00028197432319841,0.00365862151437426,"V35",8,209996,113,10614,"29TPG63","29TPG6934",7108,750,"Vinhais: Vila Verde","PT","ATL_COAST","N_DUNES",70,"",NA,4,"1731","Crassulo tillaeae-Saginetum apetalae","Gonçalves Aguiar, C.F.","2000","Flora e vegetação da Serra de Nogueira e do Parque Natural de Montesinho","Universidade Técnica de Lisboa. Inst. Superior de Agronomia. pp."," V35   ","No forest",-7.056833538,41.84438384,"3 - UTM10x10 + Elevation",750,"Trampled (V35)","Trampled (V35)"
"Q-P09999",-0.0112870879332588,0.00622170007958306,"V",7,209999,117,11005,"29TPG83","29TPG8936",7111,640,"Bragança: Baçal","PT","ATL_COAST","N_DUNES",60,"",NA,1,"7011","Comunidad de Spergularia purpurea y Plantago coronopus","Gonçalves Aguiar, C.F.","2000","Flora e vegetação da Serra de Nogueira e do Parque Natural de Montesinho","Universidade Técnica de Lisboa. Inst. Superior de Agronomia. pp."," V     ","No forest",-6.736622917,41.88768148,"3 - UTM10x10 + Elevation",640,"Trampled (V35)","Trampled (V35)"
"Q-P10001",-0.000157103150598345,0.00584301022038968,"V32",5,210001,112,8895,"29TPG93","29TPG9733",7113,780,"Bragança: Caravela","PT","ATL_COAST","N_DUNES",60,"",NA,1,"7011","Comunidad de Spergularia purpurea y Plantago coronopus","Gonçalves Aguiar, C.F.","2000","Flora e vegetação da Serra de Nogueira e do Parque Natural de Montesinho","Universidade Técnica de Lisboa. Inst. Superior de Agronomia. pp."," V32   ","No forest",-6.604765258,41.81445954,"3 - UTM10x10 + Elevation",780,"Trampled (V35)","Trampled (V35)"
"Q-P10002",-0.00774491542034749,0.00668234711979557,"V",7,210002,110,10172,"29TPG72","29TPG7529",7114,800,"Bragança: Alimonde","PT","ATL_COAST","N_DUNES",30,"",NA,1,"7011","Comunidad de Spergularia purpurea y Plantago coronopus","Gonçalves Aguiar, C.F.","2000","Flora e vegetação da Serra de Nogueira e do Parque Natural de Montesinho","Universidade Técnica de Lisboa. Inst. Superior de Agronomia. pp."," V     ","No forest",-6.891229027,41.77448393,"3 - UTM10x10 + Elevation",800,"Trampled (V35)","Trampled (V35)"
"Q-P10004",-0.00796051019609664,0.00635619573353983,"V32",5,210004,113,11320,"29TPG73","29TPG7335",7116,680,"Bragança: Soeira","PT","ATL_COAST","N_DUNES",50,"",NA,1,"7011","Comunidad de Spergularia purpurea y Plantago coronopus","Gonçalves Aguiar, C.F.","2000","Flora e vegetação da Serra de Nogueira e do Parque Natural de Montesinho","Universidade Técnica de Lisboa. Inst. Superior de Agronomia. pp."," V32   ","No forest",-6.929148103,41.88304723,"3 - UTM10x10 + Elevation",680,"Trampled (V35)","Trampled (V35)"
"Q-P10011",0.00113315190379197,0.00288273841649425,"V32",5,210011,113,9933,"29TPG83","29TPG8637",7123,700,"Bragança: Rabal","PT","ATL_COAST","N_DUNES",90,"NE",4.5,4,"4249","Trifolio cherleri-Taeniatheretum capitis-medusae","Gonçalves Aguiar, C.F.","2000","Flora e vegetação da Serra de Nogueira e do Parque Natural de Montesinho","Universidade Técnica de Lisboa. Inst. Superior de Agronomia. pp."," V32   ","No forest",-6.799392864,41.80817847,"3 - UTM10x10 + Elevation",700,"Xeric ruderals (V38)","Mesic ruderals (V39)"
"Q-P10018",-0.00254274719206066,0.000495010272528517,"V32",5,210018,116,9707,"29TPG93","29TPG9130",7129,640,"Bragança: Gimonde","PT","ATL_COAST","N_DUNES",70,"W",54,5,"2181","Coincyo setigerae-Brassicetum barrelieri","Gonçalves Aguiar, C.F.","2000","Flora e vegetação da Serra de Nogueira e do Parque Natural de Montesinho","Universidade Técnica de Lisboa. Inst. Superior de Agronomia. pp."," V32   ","No forest",-6.632460618,41.87842123,"3 - UTM10x10 + Elevation",640,"Weeds (V15)","Weeds (V15)"
"Q-P10021",-0.000111803139958864,0.00231733820350556,"V37",9,210021,110,12387,"29TPG74","29TPG7840",7132,800,"Bragança: Vilarinho de Cova de Lua","PT","ATL_COAST","N_DUNES",70,"",NA,8,"750","Urtico urentis-Malvetum neglectae","Gonçalves Aguiar, C.F.","2000","Flora e vegetação da Serra de Nogueira e do Parque Natural de Montesinho","Universidade Técnica de Lisboa. Inst. Superior de Agronomia. pp."," V37   ","No forest",-6.928752015,41.95509681,"3 - UTM10x10 + Elevation",800,"Trampled (V35)","Trampled (V35)"
"Q-P10023",-0.00097448193313551,0.00152944223119821,"V37",9,210023,112,10496,"29TPG63","29TPG6934",7134,720,"Vinhais: Vila Verde","PT","ATL_COAST","N_DUNES",80,"",NA,4,"750","Urtico urentis-Malvetum neglectae","Gonçalves Aguiar, C.F.","2000","Flora e vegetação da Serra de Nogueira e do Parque Natural de Montesinho","Universidade Técnica de Lisboa. Inst. Superior de Agronomia. pp."," V37   ","No forest",-7.006255233,41.84436117,"3 - UTM10x10 + Elevation",720,"Trampled (V35)","Trampled (V35)"
"Q-P10024",-0.000480996209523837,0.00159815202779653,"V37",9,210024,116,10410,"29TPG83","29TPG8637",7135,650,"Bragança: Rabal","PT","ATL_COAST","N_DUNES",70,"",NA,4,"750","Urtico urentis-Malvetum neglectae","Gonçalves Aguiar, C.F.","2000","Flora e vegetação da Serra de Nogueira e do Parque Natural de Montesinho","Universidade Técnica de Lisboa. Inst. Superior de Agronomia. pp."," V37   ","No forest",-6.761816739,41.86524646,"3 - UTM10x10 + Elevation",650,"Trampled (V35)","Trampled (V35)"
"Q-P10025",0.00181436363209127,0.0018940412835749,"V32",5,210025,116,10091,"29TPG94","29TPG9040",7136,650,"Bragança: Aveleda, caminho que margina a rib.ª da Aveleda","PT","ATL_COAST","N_DUNES",100,"",NA,8,"2176","Bromo scoparii-Hordeetum leporini","Gonçalves Aguiar, C.F.","2000","Flora e vegetação da Serra de Nogueira e do Parque Natural de Montesinho","Universidade Técnica de Lisboa. Inst. Superior de Agronomia. pp."," V32   ","No forest",-6.625956464,41.89123386,"3 - UTM10x10 + Elevation",650,"Mesic ruderals (V39)","Mesic ruderals (V39)"
"Q-P10026",0.00064167169768032,0.00119763396101315,"V32",5,210026,112,9853,"29TPG93","29TPG9536",7137,620,"Bragança: Labiados","PT","ATL_COAST","N_DUNES",100,"",NA,6,"2176","Bromo scoparii-Hordeetum leporini","Gonçalves Aguiar, C.F.","2000","Flora e vegetação da Serra de Nogueira e do Parque Natural de Montesinho","Universidade Técnica de Lisboa. Inst. Superior de Agronomia. pp."," V32   ","No forest",-6.61857634,41.83535117,"4 - UTM10x10 + Centroid",620,"Weeds (V15)","Mesic ruderals (V39)"
"Q-P10027",0.00165121270640714,0.00135334200668541,"V32",5,210027,112,10832,"29TPG84","29TPG8741",7138,660,"Bragança: França","PT","ATL_COAST","N_DUNES",100,"SE",25,6,"7012","Comunidad de Sisymbrium officinalis y Hordeum murinum supbs. leporinum","Gonçalves Aguiar, C.F.","2000","Flora e vegetação da Serra de Nogueira e do Parque Natural de Montesinho","Universidade Técnica de Lisboa. Inst. Superior de Agronomia. pp."," V32   ","No forest",-6.725117844,41.89706054,"3 - UTM10x10 + Elevation",660,"Mesic ruderals (V39)","Mesic ruderals (V39)"
"Q-P10028",0.0019238026822946,0.00268966608843679,"V32",5,210028,112,9853,"29TPG93","29TPG9130",7139,520,"Bragança: Gimonde, junto à estrada para Palácios","PT","ATL_COAST","N_DUNES",100,"",NA,2,"7012","Comunidad de Sisymbrium officinalis y Hordeum murinum supbs. leporinum","Gonçalves Aguiar, C.F.","2000","Flora e vegetação da Serra de Nogueira e do Parque Natural de Montesinho","Universidade Técnica de Lisboa. Inst. Superior de Agronomia. pp."," V32   ","No forest",-6.61857634,41.83535117,"4 - UTM10x10 + Centroid",520,"Trampled (V35)","Mesic ruderals (V39)"
"Q-P10029",0.0021015674933639,0.00242601345546961,"V37",9,210029,107,11676,"29TPG84","29TPG8741",7140,1000,"Bragança: França, Montesinho","PT","ATL_COAST","N_DUNES",90,"",NA,2,"7012","Comunidad de Sisymbrium officinalis y Hordeum murinum supbs. leporinum","Gonçalves Aguiar, C.F.","2000","Flora e vegetação da Serra de Nogueira e do Parque Natural de Montesinho","Universidade Técnica de Lisboa. Inst. Superior de Agronomia. pp."," V37   ","No forest",-6.803064813,41.91071034,"3 - UTM10x10 + Elevation",1000,"Mesic ruderals (V39)","Mesic ruderals (V39)"
"Q-P10030",0.0024335695745257,0.00129544407619289,"V37",9,210030,114,10176,"29TPG94","29TPG9040",7141,660,"Bragança: Aveleda","PT","ATL_COAST","N_DUNES",100,"",NA,5,"7012","Comunidad de Sisymbrium officinalis y Hordeum murinum supbs. leporinum","Gonçalves Aguiar, C.F.","2000","Flora e vegetação da Serra de Nogueira e do Parque Natural de Montesinho","Universidade Técnica de Lisboa. Inst. Superior de Agronomia. pp."," V37   ","No forest",-6.695830527,41.89080433,"3 - UTM10x10 + Elevation",660,"Mesic ruderals (V39)","Mesic ruderals (V39)"
"Q-P10032",0.0022104623094924,0.00175112508639054,"V32",5,210032,116,10615,"29TPG73","29TPG7533",7143,600,"Bragança: Castrelos, ponte de Castrelos","PT","ATL_COAST","N_DUNES",100,"",NA,6,"7012","Comunidad de Sisymbrium officinalis y Hordeum murinum supbs. leporinum","Gonçalves Aguiar, C.F.","2000","Flora e vegetação da Serra de Nogueira e do Parque Natural de Montesinho","Universidade Técnica de Lisboa. Inst. Superior de Agronomia. pp."," V32   ","No forest",-6.927495113,41.85609022,"3 - UTM10x10 + Elevation",600,"Mesic ruderals (V39)","Mesic ruderals (V39)"
"Q-P10033",0.00199180116618949,0.00254135180380498,"V37",9,210033,121,10710,"29TPG63","29TPG6134",7144,740,"Vinhais: Sobreiró-de-Cima","PT","ATL_COAST","N_DUNES",100,"",NA,6,"7012","Comunidad de Sisymbrium officinalis y Hordeum murinum supbs. leporinum","Gonçalves Aguiar, C.F.","2000","Flora e vegetação da Serra de Nogueira e do Parque Natural de Montesinho","Universidade Técnica de Lisboa. Inst. Superior de Agronomia. pp."," V37   ","No forest",-7.038993386,41.82880563,"3 - UTM10x10 + Elevation",740,"Mesic ruderals (V39)","Mesic ruderals (V39)"
"Q-P10034",0.00105477339599733,0.00124205238669691,"V32",5,210034,112,9853,"29TPG93","29TPG9130",7145,500,"Bragança: Gimonde","PT","ATL_COAST","N_DUNES",100,"",NA,16,"7012","Comunidad de Sisymbrium officinalis y Hordeum murinum supbs. leporinum","Gonçalves Aguiar, C.F.","2000","Flora e vegetação da Serra de Nogueira e do Parque Natural de Montesinho","Universidade Técnica de Lisboa. Inst. Superior de Agronomia. pp."," V32   ","No forest",-6.61857634,41.83535117,"4 - UTM10x10 + Centroid",500,"Mesic ruderals (V39)","Mesic ruderals (V39)"
"Q-P10035",0.000722747594514705,0.00212870458157853,"V32",5,210035,113,9360,"29TQG03","29TQG0036",7146,900,"Bragança: Deilão","PT","ATL_COAST","N_DUNES",100,"",NA,4,"7012","Comunidad de Sisymbrium officinalis y Hordeum murinum supbs. leporinum","Gonçalves Aguiar, C.F.","2000","Flora e vegetação da Serra de Nogueira e do Parque Natural de Montesinho","Universidade Técnica de Lisboa. Inst. Superior de Agronomia. pp."," V32   ","No forest",-6.584742758,41.84390284,"3 - UTM10x10 + Elevation",900,"Trampled (V35)","Mesic ruderals (V39)"
"Q-P10036",-0.0111029587092022,-3.74406679235023e-05,"V15",4,210036,109,9356,"29TPG93","29TPG9733",7147,940,"Bragança: Caravela","PT","ATL_COAST","N_DUNES",50,"SW",4.5,12,"7013_a,,,,,GA12","","","","",""," V15   ","No forest",-6.594360057,41.84360189,"3 - UTM10x10 + Elevation",940,"Weeds (V15)","Weeds (V15)"
"Q-P10037",-0.00964422284650877,-0.000285351449383244,"V15",4,210037,111,9336,"29TQG03","29TQG0036",7148,920,"Bragança: Deilão, posto de vigia","PT","ATL_COAST","N_DUNES",70,"S",5,6,"7013_a,,,,,GA12","","","","",""," V15   ","No forest",-6.589350209,41.84015678,"3 - UTM10x10 + Elevation",920,"Weeds (V15)","Weeds (V15)"
"Q-P10038",-0.00551602653272299,4.99512080057356e-05,"V15",4,210038,112,9671,"29TQG03","29TQG0036",7149,900,"Bragança: Deilão, na aldeia","PT","ATL_COAST","N_DUNES",60,"",NA,8,"7013_a,,,,,GA12","","","","",""," V15   ","No forest",-6.570114655,41.88398082,"3 - UTM10x10 + Elevation",900,"Weeds (V15)","Weeds (V15)"
"Q-P10040",-0.00570215918152769,-0.000188952297769707,"V15",4,210040,108,11272,"29TPG73","29TPG7838",7150,900,"Bragança: Terroso","PT","ATL_COAST","N_DUNES",60,"W",4.5,25,"7013_a,,,,,GA12","","","","",""," V15   ","No forest",-6.844864028,41.8841034,"3 - UTM10x10 + Elevation",900,"Weeds (V15)","Weeds (V15)"
"Q-P10041",-0.00454500254412411,-0.000128604599831637,"V15",4,210041,119,12990,"29TPG54","29TPG5441",7151,780,"Vinhais: Edroso","PT","ATL_COAST","N_DUNES",70,"",NA,30,"7013_a,,,,,GA12","","","","",""," V15   ","No forest",-7.163941607,41.93598928,"3 - UTM10x10 + Elevation",780,"Weeds (V15)","Weeds (V15)"
"Q-P10042",-0.00460524399543142,-0.00109586980517562,"V15",4,210042,121,12558,"29TPG54","29TPG5245",7152,780,"Vinhais: Vilarinho","PT","ATL_COAST","N_DUNES",40,"",NA,20,"7013_a,,,,,GA12","","","","",""," V15   ","No forest",-7.128977716,41.91744476,"3 - UTM10x10 + Elevation",780,"Weeds (V15)","Weeds (V15)"
"Q-P10043",-0.00649735419149034,-0.00213842440160534,"V15",4,210043,113,11439,"29TPG54","29TPG5447",7153,820,"Vinhais: Pinheiro Novo","PT","ATL_COAST","N_DUNES",70,"",NA,4,"7013_a,,,,,GA12","","","","",""," V15   ","No forest",-7.159197525,41.90014462,"3 - UTM10x10 + Elevation",820,"Weeds (V15)","Weeds (V15)"
"Q-P10045",-0.00850582437929615,-0.000496591101411339,"V15",4,210045,99,11900,"29TPG84","29TPG8741",7155,1030,"Bragança: França, Montesinho, a Norte da aldeia","PT","ATL_COAST","N_DUNES",70,"S",4.5,25,"7013_a,,,,,GA12","","","","",""," V15   ","No forest",-6.813546977,41.92476961,"3 - UTM10x10 + Elevation",1030,"Weeds (V15)","Weeds (V15)"
"Q-P10046",-0.00548524314343117,-0.000366939462171211,"V15",4,210046,111,9280,"29TPG93","29TPG9632",7156,880,"Bragança: Babe","PT","ATL_COAST","N_DUNES",70,"",NA,20,"7013_a,,,,,GA12","","","","",""," V15   ","No forest",-6.602866544,41.82352414,"3 - UTM10x10 + Elevation",880,"Weeds (V15)","Weeds (V15)"
"Q-P10047",-0.0112812228181135,-3.99389820886227e-05,"V15",4,210047,115,8906,"29TPG93","29TPG9238",7157,750,"Bragança: Varge, estrada para rio de Onor","PT","ATL_COAST","N_DUNES",30,"SW",4.5,16,"7013_a,,,,,GA12","","","","",""," V15   ","No forest",-6.596850701,41.80210099,"3 - UTM10x10 + Elevation",750,"Weeds (V15)","Weeds (V15)"
"Q-P10048",-0.00656916935243073,0.000211603644392753,"V15",4,210048,115,9845,"29TPG93","29TPG9036",7158,680,"Bragança: Baçal, aeródromo","PT","ATL_COAST","N_DUNES",30,"",NA,16,"7013_b,,,,,GA12","","","","",""," V15   ","No forest",-6.628056888,41.88576452,"3 - UTM10x10 + Elevation",680,"Weeds (V15)","Weeds (V15)"
"Q-P10049",-0.00919991144505697,9.87044010560924e-05,"V15",4,210049,110,11114,"29TPG63","29TPG6133",7159,760,"Vinhais: Sobreiró-de-Baixo","PT","ATL_COAST","N_DUNES",50,"",NA,25,"7013_b,,,,,GA12","","","","",""," V15   ","No forest",-7.0318689,41.86867586,"3 - UTM10x10 + Elevation",760,"Weeds (V15)","Weeds (V15)"
"Q-P10050",-0.00544837591137823,0.00159370328764113,"V15",4,210050,107,10551,"29TPG62","29TPG6928",7160,880,"Vinhais: Ousilhão","PT","ATL_COAST","N_DUNES",30,"",NA,25,"7013_b,,,,,GA12","","","","",""," V15   ","No forest",-6.956713676,41.78304936,"3 - UTM10x10 + Elevation",880,"Weeds (V15)","Weeds (V15)"
"Q-P10051",-0.00562608893094851,0.00144813485723609,"V15",4,210051,109,9845,"29TPG62","29TPG6928",7161,850,"Vinhais: Vila Boa de Ousilhão","PT","ATL_COAST","N_DUNES",60,"",NA,20,"7013_b,,,,,GA12","","","","",""," V15   ","No forest",-6.962255002,41.75584432,"3 - UTM10x10 + Elevation",850,"Weeds (V15)","Weeds (V15)"
"Q-P10052",-0.00562928330905212,0.00102315822439025,"V15",4,210052,115,11555,"29TPG63","29TPG6934",7162,790,"Vinhais: Vila-Verde, estradão para o Monte de Cabrões","PT","ATL_COAST","N_DUNES",60,"W",4.5,25,"7013_b,,,,,GA12","","","","",""," V15   ","No forest",-6.951235016,41.88949185,"3 - UTM10x10 + Elevation",790,"Weeds (V15)","Weeds (V15)"
"Q-P10053",-0.00780444632592005,-0.000695871328718766,"V15",4,210053,109,11468,"29TPG63","29TPG6335",7163,860,"Vinhais: Lagarelhos","PT","ATL_COAST","N_DUNES",30,"",NA,15,"7013_b,,,,,GA12","","","","",""," V15   ","No forest",-7.067007472,41.89084622,"3 - UTM10x10 + Elevation",860,"Weeds (V15)","Weeds (V15)"
"Q-P10054",-0.00421727536919697,0.000369877368949601,"V15",4,210054,113,9215,"29TPG93","29TPG9937",7164,830,"Vinhais: Paçó","PT","ATL_COAST","N_DUNES",70,"NNE",9,16,"7013","Catapodietum patentis","Gonçalves Aguiar, C.F.","2000","Flora e vegetação da Serra de Nogueira e do Parque Natural de Montesinho","Universidade Técnica de Lisboa. Inst. Superior de Agronomia. pp."," V15   ","No forest",-6.597757147,41.81828152,"3 - UTM10x10 + Elevation",830,"Weeds (V15)","Weeds (V15)"
"Q-P10055",-0.00339912075174956,0.000169241851622333,"V15",4,210055,112,11101,"29TPG63","29TPG6236",7165,840,"Vinhais: Zido","PT","ATL_COAST","N_DUNES",60,"SE",4.5,9,"7013","Catapodietum patentis","Gonçalves Aguiar, C.F.","2000","Flora e vegetação da Serra de Nogueira e do Parque Natural de Montesinho","Universidade Técnica de Lisboa. Inst. Superior de Agronomia. pp."," V15   ","No forest",-7.059109571,41.88032087,"3 - UTM10x10 + Elevation",840,"Weeds (V15)","Weeds (V15)"
"Q-P10060",-0.00736861125955088,4.6205620160995e-05,"V15",4,210060,117,9915,"29TPG93","29TPG9536",7166,640,"Bragança: Labiados","PT","ATL_COAST","N_DUNES",50,"W",4.5,12,"7014","Comunidad de Chrysanthemum segetum y Lolium rigidum","Gonçalves Aguiar, C.F.","2000","Flora e vegetação da Serra de Nogueira e do Parque Natural de Montesinho","Universidade Técnica de Lisboa. Inst. Superior de Agronomia. pp."," V15   ","No forest",-6.635274238,41.88553598,"3 - UTM10x10 + Elevation",640,"Weeds (V15)","Weeds (V15)"
"Q-P10061",-0.00921872625356657,-0.000511961442164917,"V15",4,210061,116,10539,"29TPG83","29TPG8936",7167,630,"Bragança: Baçal","PT","ATL_COAST","N_DUNES",50,"",NA,10,"7014","Comunidad de Chrysanthemum segetum y Lolium rigidum","Gonçalves Aguiar, C.F.","2000","Flora e vegetação da Serra de Nogueira e do Parque Natural de Montesinho","Universidade Técnica de Lisboa. Inst. Superior de Agronomia. pp."," V15   ","No forest",-6.76432699,41.86696504,"3 - UTM10x10 + Elevation",630,"Weeds (V15)","Weeds (V15)"
"Q-P10062",-0.00268171549404295,-0.00425603706306939,"V15",4,210062,111,9593,"29TPG93","29TPG9832",7168,840,"Bragança: S. Julião","PT","ATL_COAST","N_DUNES",40,"",NA,4,"2199","Miboro minimae-Arabidopsietum thalianae","Gonçalves Aguiar, C.F.","2000","Flora e vegetação da Serra de Nogueira e do Parque Natural de Montesinho","Universidade Técnica de Lisboa. Inst. Superior de Agronomia. pp."," V15   ","No forest",-6.592963053,41.86165553,"3 - UTM10x10 + Elevation",840,"Weeds (V15)","Weeds (V15)"
"Q-P10064",-0.00280598052428237,-0.00310276480132056,"V15",4,210064,113,10433,"29TPG83","29TPG8637",7169,650,"Bragança: Rabal, Talude","PT","ATL_COAST","N_DUNES",50,"NW",13.5,4,"2199","Miboro minimae-Arabidopsietum thalianae","Gonçalves Aguiar, C.F.","2000","Flora e vegetação da Serra de Nogueira e do Parque Natural de Montesinho","Universidade Técnica de Lisboa. Inst. Superior de Agronomia. pp."," V15   ","No forest",-6.724490367,41.88627521,"3 - UTM10x10 + Elevation",650,"Weeds (V15)","Weeds (V15)"
"Q-P10065",-0.00860335160797626,-0.00157989786364824,"V15",4,210065,116,10932,"29TPG83","29TPG8637",7170,630,"Bragança: Rabal, Nabal","PT","ATL_COAST","N_DUNES",30,"S",13.5,1,"2199","Miboro minimae-Arabidopsietum thalianae","Gonçalves Aguiar, C.F.","2000","Flora e vegetação da Serra de Nogueira e do Parque Natural de Montesinho","Universidade Técnica de Lisboa. Inst. Superior de Agronomia. pp."," V15   ","No forest",-6.736518026,41.88588395,"3 - UTM10x10 + Elevation",630,"Weeds (V15)","Weeds (V15)"
"Q-P10066",-0.00264013831811301,-0.00415993991395962,"V15",4,210066,111,10421,"29TPG94","29TPG9040",7171,680,"Bragança: Aveleda","PT","ATL_COAST","N_DUNES",70,"",NA,3,"2199","Miboro minimae-Arabidopsietum thalianae","Gonçalves Aguiar, C.F.","2000","Flora e vegetação da Serra de Nogueira e do Parque Natural de Montesinho","Universidade Técnica de Lisboa. Inst. Superior de Agronomia. pp."," V15   ","No forest",-6.684422129,41.90197718,"3 - UTM10x10 + Elevation",680,"Weeds (V15)","Weeds (V15)"
"Q-P10067",-0.00402065529889567,-0.00277637666249098,"V15",4,210067,109,11575,"29TPG74","29TPG7640",7172,780,"Bragança: Parâmio","PT","ATL_COAST","N_DUNES",20,"SE",45,10,"2199","Miboro minimae-Arabidopsietum thalianae","Gonçalves Aguiar, C.F.","2000","Flora e vegetação da Serra de Nogueira e do Parque Natural de Montesinho","Universidade Técnica de Lisboa. Inst. Superior de Agronomia. pp."," V15   ","No forest",-6.939459901,41.9331186,"3 - UTM10x10 + Elevation",780,"Weeds (V15)","Weeds (V15)"
"Q-P10068",-0.00380991424525598,-0.0041408749315137,"V15",4,210068,120,11578,"29TPG53","29TPG5338",7173,700,"Vinhais: Gestosa","PT","ATL_COAST","N_DUNES",40,"",NA,6,"2199","Miboro minimae-Arabidopsietum thalianae","Gonçalves Aguiar, C.F.","2000","Flora e vegetação da Serra de Nogueira e do Parque Natural de Montesinho","Universidade Técnica de Lisboa. Inst. Superior de Agronomia. pp."," V15   ","No forest",-7.182540579,41.88849023,"3 - UTM10x10 + Elevation",700,"Weeds (V15)","Weeds (V15)"
"Q-P10069",-0.00147204745802466,0.000121782848921913,"V15",4,210069,108,9327,"29TPG93","29TPG9732",7174,830,"Bragança: Palácios","PT","ATL_COAST","N_DUNES",70,"ESE",4.5,4,"2199","Miboro minimae-Arabidopsietum thalianae","Gonçalves Aguiar, C.F.","2000","Flora e vegetação da Serra de Nogueira e do Parque Natural de Montesinho","Universidade Técnica de Lisboa. Inst. Superior de Agronomia. pp."," V15   ","No forest",-6.639224308,41.82777945,"3 - UTM10x10 + Elevation",830,"Weeds (V15)","Weeds (V15)"
"Q-P10070",-0.00588243222522994,0.000125003841922355,"V15",4,210070,112,9853,"29TPG93","29TPG9130",7175,560,"Bragança: Gimonde","PT","ATL_COAST","N_DUNES",70,"E",9,4,"2199","Miboro minimae-Arabidopsietum thalianae","Gonçalves Aguiar, C.F.","2000","Flora e vegetação da Serra de Nogueira e do Parque Natural de Montesinho","Universidade Técnica de Lisboa. Inst. Superior de Agronomia. pp."," V15   ","No forest",-6.61857634,41.83535117,"4 - UTM10x10 + Centroid",560,"Weeds (V15)","Weeds (V15)"
"Q-P10071",0.000243811485131315,-0.0020517533576278,"V15",4,210071,113,10433,"29TPG83","29TPG8637",7176,640,"Bragança: Rabal","PT","ATL_COAST","N_DUNES",70,"",NA,16,"7015","Comunidad de Echinochloa crus-galli y Setaria Verticillata","Gonçalves Aguiar, C.F.","2000","Flora e vegetação da Serra de Nogueira e do Parque Natural de Montesinho","Universidade Técnica de Lisboa. Inst. Superior de Agronomia. pp."," V15   ","No forest",-6.724490367,41.88627521,"3 - UTM10x10 + Elevation",640,"Weeds (V15)","Weeds (V15)"
"Q-P10072",0.000204231581637137,-0.00284364975255543,"V",9,210072,115,11397,"29TPG84","29TPG8741",7177,670,"Bragança: França","PT","ATL_COAST","N_DUNES",80,"",NA,12,"7015","Comunidad de Echinochloa crus-galli y Setaria Verticillata","Gonçalves Aguiar, C.F.","2000","Flora e vegetação da Serra de Nogueira e do Parque Natural de Montesinho","Universidade Técnica de Lisboa. Inst. Superior de Agronomia. pp."," V     ","No forest",-6.727942574,41.90417254,"3 - UTM10x10 + Elevation",670,"Weeds (V15)","Weeds (V15)"
"Q-P10073",-0.000726597845257392,-0.00247763147131785,"V15",4,210073,115,9784,"29TPG93","29TPG9136",7178,660,"Bragança: Sacoias","PT","ATL_COAST","N_DUNES",100,"",NA,20,"7015","Comunidad de Echinochloa crus-galli y Setaria Verticillata","Gonçalves Aguiar, C.F.","2000","Flora e vegetação da Serra de Nogueira e do Parque Natural de Montesinho","Universidade Técnica de Lisboa. Inst. Superior de Agronomia. pp."," V15   ","No forest",-6.630258874,41.88209289,"3 - UTM10x10 + Elevation",660,"Weeds (V15)","Weeds (V15)"
"Q-P10074",0.00110450148565845,-0.00220806147585992,"V34",7,210074,110,10909,"29TPG73","29TPG7335",7154,550,"Vinhais: Soeira, truticultura do Tuela","PT","ATL_COAST","N_DUNES",100,"",NA,6,"7015","Comunidad de Echinochloa crus-galli y Setaria Verticillata","Gonçalves Aguiar, C.F.","2000","Flora e vegetação da Serra de Nogueira e do Parque Natural de Montesinho","Universidade Técnica de Lisboa. Inst. Superior de Agronomia. pp."," V34   ","No forest",-6.866908731,41.86536384,"4 - UTM10x10 + Centroid",550,"Trampled (V35)","Trampled (V35)"
"Q-P10075",-0.00297180937209965,0.00122069453569192,"V37",9,210075,110,9810,"29TPG62","29TPG6928",7180,760,"Vinhais: Ousilhão","PT","ATL_COAST","N_DUNES",60,"",NA,4,"7015","Comunidad de Echinochloa crus-galli y Setaria Verticillata","Gonçalves Aguiar, C.F.","2000","Flora e vegetação da Serra de Nogueira e do Parque Natural de Montesinho","Universidade Técnica de Lisboa. Inst. Superior de Agronomia. pp."," V37   ","No forest",-6.963473393,41.77561233,"3 - UTM10x10 + Elevation",760,"Weeds (V15)","Weeds (V15)"
"Q-P10077",0.000930305248972266,-0.00230948028612489,"V15",4,210077,112,9853,"29TPG93","29TPG9130",7181,530,"Bragança: Gimonde","PT","ATL_COAST","N_DUNES",100,"",NA,20,"7015","Comunidad de Echinochloa crus-galli y Setaria Verticillata","Gonçalves Aguiar, C.F.","2000","Flora e vegetação da Serra de Nogueira e do Parque Natural de Montesinho","Universidade Técnica de Lisboa. Inst. Superior de Agronomia. pp."," V15   ","No forest",-6.61857634,41.83535117,"4 - UTM10x10 + Centroid",530,"Weeds (V15)","Weeds (V15)"
"Q-P10078",-0.000444999694294831,-0.00561239814254382,"V15",4,210078,112,9853,"29TPG93","29TPG9130",7182,540,"Bragança: Gimonde","PT","ATL_COAST","N_DUNES",79,"",NA,4,"7015","Comunidad de Echinochloa crus-galli y Setaria Verticillata","Gonçalves Aguiar, C.F.","2000","Flora e vegetação da Serra de Nogueira e do Parque Natural de Montesinho","Universidade Técnica de Lisboa. Inst. Superior de Agronomia. pp."," V15   ","No forest",-6.61857634,41.83535117,"4 - UTM10x10 + Centroid",540,"Weeds (V15)","Weeds (V15)"
"Q-P10081",-0.0021329043001964,0.000447682272315336,"V15",4,210081,115,11397,"29TPG84","29TPG8741",7183,660,"Bragança: França, veiga","PT","ATL_COAST","N_DUNES",90,"",NA,4,"7016","Comunidad de Lamium amplexicaule y Stellaria media","Gonçalves Aguiar, C.F.","2000","Flora e vegetação da Serra de Nogueira e do Parque Natural de Montesinho","Universidade Técnica de Lisboa. Inst. Superior de Agronomia. pp."," V15   ","No forest",-6.727942574,41.90417254,"3 - UTM10x10 + Elevation",660,"Weeds (V15)","Weeds (V15)"
"Q-P10082",-0.00220603455015756,0.00133044701432354,"V",4,210082,106,11259,"29TPG84","29TPG8545",7184,1000,"Bragança: Montesinho, na aldeia","PT","ATL_COAST","N_DUNES",100,"",NA,2,"7016","Comunidad de Lamium amplexicaule y Stellaria media","Gonçalves Aguiar, C.F.","2000","Flora e vegetação da Serra de Nogueira e do Parque Natural de Montesinho","Universidade Técnica de Lisboa. Inst. Superior de Agronomia. pp."," V     ","No forest",-6.800658553,41.91079012,"3 - UTM10x10 + Elevation",1000,"Weeds (V15)","Weeds (V15)"
"Q-P10083",-0.0022778739585886,0.000555716738051529,"V15",4,210083,116,10282,"29TPG83","29TPG8637",7185,630,"Bragança: Rabal, veiga","PT","ATL_COAST","N_DUNES",80,"",NA,2,"7016","Comunidad de Lamium amplexicaule y Stellaria media","Gonçalves Aguiar, C.F.","2000","Flora e vegetação da Serra de Nogueira e do Parque Natural de Montesinho","Universidade Técnica de Lisboa. Inst. Superior de Agronomia. pp."," V15   ","No forest",-6.761711225,41.86344897,"3 - UTM10x10 + Elevation",630,"Weeds (V15)","Weeds (V15)"
"Q-P10084",-0.00225874734221077,0.00110442388593849,"V",4,210084,114,10612,"29TPG83","29TPG8936",7186,650,"Bragança: Baçal","PT","ATL_COAST","N_DUNES",60,"",NA,6,"7016","Comunidad de Lamium amplexicaule y Stellaria media","Gonçalves Aguiar, C.F.","2000","Flora e vegetação da Serra de Nogueira e do Parque Natural de Montesinho","Universidade Técnica de Lisboa. Inst. Superior de Agronomia. pp."," V     ","No forest",-6.731706991,41.88604061,"3 - UTM10x10 + Elevation",650,"Weeds (V15)","Weeds (V15)"
"Q-P10085",-0.00152859970835106,0.00058546501448663,"V15",4,210085,113,9296,"29TPG93","29TPG9937",7187,870,"Vinhais: Paçó","PT","ATL_COAST","N_DUNES",100,"",NA,4,"7016","Comunidad de Lamium amplexicaule y Stellaria media","Gonçalves Aguiar, C.F.","2000","Flora e vegetação da Serra de Nogueira e do Parque Natural de Montesinho","Universidade Técnica de Lisboa. Inst. Superior de Agronomia. pp."," V15   ","No forest",-6.632890883,41.80096541,"3 - UTM10x10 + Elevation",870,"Weeds (V15)","Weeds (V15)"
"Q-P10086",-0.00200009984448149,0.000996009009063874,"V15",4,210086,113,11135,"29TPG53","29TPG5338",7188,700,"Vinhais: Gestosa","PT","ATL_COAST","N_DUNES",100,"",NA,4,"7016","Comunidad de Lamium amplexicaule y Stellaria media","Gonçalves Aguiar, C.F.","2000","Flora e vegetação da Serra de Nogueira e do Parque Natural de Montesinho","Universidade Técnica de Lisboa. Inst. Superior de Agronomia. pp."," V15   ","No forest",-7.07582557,41.87792696,"3 - UTM10x10 + Elevation",700,"Weeds (V15)","Weeds (V15)"
"Q-P10087",-0.00210163313903067,0.00131974238510331,"V",4,210087,108,9511,"29TPG72","29TPG7426",7189,900,"Bragança: Carrazedo","PT","ATL_COAST","N_DUNES",100,"",NA,4,"7016","Comunidad de Lamium amplexicaule y Stellaria media","Gonçalves Aguiar, C.F.","2000","Flora e vegetação da Serra de Nogueira e do Parque Natural de Montesinho","Universidade Técnica de Lisboa. Inst. Superior de Agronomia. pp."," V     ","No forest",-6.899963984,41.72015921,"3 - UTM10x10 + Elevation",900,"Weeds (V15)","Weeds (V15)"
"Q-P10088",-0.00175333494829518,0.000436979777697415,"V15",4,210088,112,10229,"29TPG94","29TPG9745",7190,750,"Bragança: rio de Onor","PT","ATL_COAST","N_DUNES",100,"",NA,4,"7016","Comunidad de Lamium amplexicaule y Stellaria media","Gonçalves Aguiar, C.F.","2000","Flora e vegetação da Serra de Nogueira e do Parque Natural de Montesinho","Universidade Técnica de Lisboa. Inst. Superior de Agronomia. pp."," V15   ","No forest",-6.614058215,41.93663371,"1 - UTM1x1 + Elevation",750,"Weeds (V15)","Weeds (V15)"
"Q-P10090",0.00349146121588859,0.00127580136659923,"?",11,210090,108,10352,"29TPG73","29TPG7735",7192,900,"Bragança: Gondesende, Portela","PT","ATL_COAST","N_DUNES",100,"SW",54,6,"7017","Comunidad de Chaerophyllum temulum y Urtica dioica","Gonçalves Aguiar, C.F.","2000","Flora e vegetação da Serra de Nogueira e do Parque Natural de Montesinho","Universidade Técnica de Lisboa. Inst. Superior de Agronomia. pp.","      ?","No forest",-6.84862466,41.82634749,"3 - UTM10x10 + Elevation",900,"Mesic ruderals (V39)","Mesic ruderals (V39)"
"Q-P10091",0.00337927064270561,-0.000964438777135719,"V32",5,210091,114,12423,"29TPG54","29TPG5047",7193,730,"Vinhais: Cisterna","PT","ATL_COAST","N_DUNES",100,"SW",63,6,"7017","Comunidad de Chaerophyllum temulum y Urtica dioica","Gonçalves Aguiar, C.F.","2000","Flora e vegetação da Serra de Nogueira e do Parque Natural de Montesinho","Universidade Técnica de Lisboa. Inst. Superior de Agronomia. pp."," V32   ","No forest",-7.182960705,41.96578556,"2 - UTM1x1 + Centroid",730,"Mesic ruderals (V39)","Mesic ruderals (V39)"
"Q-P10093",0.00577629234548222,-0.00064310463187666,"?",11,210093,112,11200,"29TPG63","29TPG6934",7195,740,"Vinhais: Vila Verde","PT","ATL_COAST","N_DUNES",100,"S",63,4,"7017","Comunidad de Chaerophyllum temulum y Urtica dioica","Gonçalves Aguiar, C.F.","2000","Flora e vegetação da Serra de Nogueira e do Parque Natural de Montesinho","Universidade Técnica de Lisboa. Inst. Superior de Agronomia. pp.","      ?","No forest",-7.039080911,41.86842203,"3 - UTM10x10 + Elevation",740,"Mesic ruderals (V39)","Mesic ruderals (V39)"
"Q-P10095",0.00648767336614857,-0.000893157216055575,"?",11,210095,110,11169,"29TPG74","29TPG7142",7197,800,"Vinhais: Dine","PT","ATL_COAST","N_DUNES",100,"W",81,5,"7017","Comunidad de Chaerophyllum temulum y Urtica dioica","Gonçalves Aguiar, C.F.","2000","Flora e vegetação da Serra de Nogueira e do Parque Natural de Montesinho","Universidade Técnica de Lisboa. Inst. Superior de Agronomia. pp.","      ?","No forest",-6.850539008,41.89832036,"3 - UTM10x10 + Elevation",800,"Mesic ruderals (V39)","Mesic ruderals (V39)"
"Q-P10097",0.00596679258483463,-0.000114432776819171,"V",11,210097,118,10998,"29TPG73","29TPG7837",7199,800,"Bragança: Espinhosela","PT","ATL_COAST","N_DUNES",100,"SW",72,6,"7017","Comunidad de Chaerophyllum temulum y Urtica dioica","Gonçalves Aguiar, C.F.","2000","Flora e vegetação da Serra de Nogueira e do Parque Natural de Montesinho","Universidade Técnica de Lisboa. Inst. Superior de Agronomia. pp."," V     ","No forest",-6.935699959,41.87201709,"3 - UTM10x10 + Elevation",800,"Mesic ruderals (V39)","Mesic ruderals (V39)"
"Q-P10098",0.00485323976848779,0.000266048347878811,"?",11,210098,105,10866,"29TPG73","29TPG7838",7200,880,"Bragança: Terroso","PT","ATL_COAST","N_DUNES",100,"W",63,4,"7017","Comunidad de Chaerophyllum temulum y Urtica dioica","Gonçalves Aguiar, C.F.","2000","Flora e vegetação da Serra de Nogueira e do Parque Natural de Montesinho","Universidade Técnica de Lisboa. Inst. Superior de Agronomia. pp.","      ?","No forest",-6.836679525,41.86816917,"3 - UTM10x10 + Elevation",880,"Mesic ruderals (V39)","Mesic ruderals (V39)"
"Q-P10099",0.00314755658802818,-0.00189669236552912,"V39",11,210099,116,9684,"29TPG82","29TPG8627",7201,680,"Bragança: Samil","PT","ATL_COAST","N_DUNES",90,"",NA,2,"742","Galio aparines-Conietum maculati","Gonçalves Aguiar, C.F.","2000","Flora e vegetação da Serra de Nogueira e do Parque Natural de Montesinho","Universidade Técnica de Lisboa. Inst. Superior de Agronomia. pp."," V39   ","No forest",-6.807617165,41.78449342,"3 - UTM10x10 + Elevation",680,"Mesic ruderals (V39)","Mesic ruderals (V39)"
"Q-P10100",0.00477073015517978,0.000230250884074862,"V39",11,210100,113,10234,"29TPG83","29TPG8233",7202,820,"Bragança: Donai","PT","ATL_COAST","N_DUNES",100,"",NA,8,"742","Galio aparines-Conietum maculati","Gonçalves Aguiar, C.F.","2000","Flora e vegetação da Serra de Nogueira e do Parque Natural de Montesinho","Universidade Técnica de Lisboa. Inst. Superior de Agronomia. pp."," V39   ","No forest",-6.795969738,41.83170412,"3 - UTM10x10 + Elevation",820,"Mesic ruderals (V39)","Mesic ruderals (V39)"
"Q-P10101",0.00645385013797975,-0.000130827663692057,"V39",11,210101,118,9323,"29TQG03","29TQG0437",7203,630,"Bragança: Petisqueira","PT","ATL_COAST","N_DUNES",100,"",NA,6,"742","Galio aparines-Conietum maculati","Gonçalves Aguiar, C.F.","2000","Flora e vegetação da Serra de Nogueira e do Parque Natural de Montesinho","Universidade Técnica de Lisboa. Inst. Superior de Agronomia. pp."," V39   ","No forest",-6.49272956,41.87915943,"3 - UTM10x10 + Elevation",630,"Mesic ruderals (V39)","Mesic ruderals (V39)"
"Q-P10102",0.00501703352625786,0.000261148932917798,"V39",11,210102,112,9853,"29TPG93","29TPG9136",7204,600,"Bragança: Sacoias, junto ao rio Igrejas","PT","ATL_COAST","N_DUNES",100,"",NA,2,"742","Galio aparines-Conietum maculati","Gonçalves Aguiar, C.F.","2000","Flora e vegetação da Serra de Nogueira e do Parque Natural de Montesinho","Universidade Técnica de Lisboa. Inst. Superior de Agronomia. pp."," V39   ","No forest",-6.61857634,41.83535117,"4 - UTM10x10 + Centroid",600,"Mesic ruderals (V39)","Mesic ruderals (V39)"
"Q-P10103",0.00446074868511027,0.00133655687125278,"V39",11,210103,112,10103,"29TPG94","29TPG9040",7205,660,"Bragança: Aveleda","PT","ATL_COAST","N_DUNES",100,"",NA,12,"742","Galio aparines-Conietum maculati","Gonçalves Aguiar, C.F.","2000","Flora e vegetação da Serra de Nogueira e do Parque Natural de Montesinho","Universidade Técnica de Lisboa. Inst. Superior de Agronomia. pp."," V39   ","No forest",-6.61694175,41.90232436,"3 - UTM10x10 + Elevation",660,"Mesic ruderals (V39)","Mesic ruderals (V39)"
"Q-P10104",0.00462552807078184,0.000136807610439836,"V39",11,210104,117,10883,"29TPG63","29TPG6435",7179,790,"Vinhais: rio de Fornos","PT","ATL_COAST","N_DUNES",100,"",NA,4,"742","Galio aparines-Conietum maculati","Gonçalves Aguiar, C.F.","2000","Flora e vegetação da Serra de Nogueira e do Parque Natural de Montesinho","Universidade Técnica de Lisboa. Inst. Superior de Agronomia. pp."," V39   ","No forest",-7.01838365,41.8457377,"3 - UTM10x10 + Elevation",790,"Mesic ruderals (V39)","Mesic ruderals (V39)"
"Q-P10107",0.00667653932256558,-0.000252377101276845,"V39",11,210107,109,12922,"29TPG74","29TPG7840",7209,840,"Bragança: Vilarinho de Cova de Lua","PT","ATL_COAST","N_DUNES",100,"",NA,5,"2725","Geranio robertiani-Caryolophetum sempervirentis","Gonçalves Aguiar, C.F.","2000","Flora e vegetação da Serra de Nogueira e do Parque Natural de Montesinho","Universidade Técnica de Lisboa. Inst. Superior de Agronomia. pp."," V39   ","No forest",-6.94308629,41.95280375,"3 - UTM10x10 + Elevation",840,"Mesic ruderals (V39)","Mesic ruderals (V39)"
"Q-P10123",0.0059068255555615,-0.000447803771772826,"V39",11,210123,112,9853,"29TPG93","29TPG9130",7224,520,"Bragança: Gimonde, à saída da ponte em direcção a Palácios","PT","ATL_COAST","N_DUNES",90,"E",45,4,"4207c","Galio aparinellae-Anthriscetum caucalidis","Gonçalves Aguiar, C.F.","2000","Flora e vegetação da Serra de Nogueira e do Parque Natural de Montesinho","Universidade Técnica de Lisboa. Inst. Superior de Agronomia. pp."," V39   ","No forest",-6.61857634,41.83535117,"4 - UTM10x10 + Centroid",520,"Mesic ruderals (V39)","Mesic ruderals (V39)"
"Q-P10124",0.00507966717221699,-0.00276146796255847,"V32",5,210124,115,10426,"29TPG83","29TPG8936",7225,630,"Bragança: Baçal","PT","ATL_COAST","N_DUNES",100,"",NA,2,"4207c","Galio aparinellae-Anthriscetum caucalidis","Gonçalves Aguiar, C.F.","2000","Flora e vegetação da Serra de Nogueira e do Parque Natural de Montesinho","Universidade Técnica de Lisboa. Inst. Superior de Agronomia. pp."," V32   ","No forest",-6.764221399,41.86516756,"3 - UTM10x10 + Elevation",630,"Mesic ruderals (V39)","Mesic ruderals (V39)"
"Q-P10126",0.00456947774234126,-0.00177360064198699,"V",11,210126,113,9925,"29TPG94","29TPG9040",7227,670,"Bragança: Aveleda","PT","ATL_COAST","N_DUNES",100,"E",63,6,"4207c","Galio aparinellae-Anthriscetum caucalidis","Gonçalves Aguiar, C.F.","2000","Flora e vegetação da Serra de Nogueira e do Parque Natural de Montesinho","Universidade Técnica de Lisboa. Inst. Superior de Agronomia. pp."," V     ","No forest",-6.618840008,41.89325961,"3 - UTM10x10 + Elevation",670,"Mesic ruderals (V39)","Mesic ruderals (V39)"
"Q-P10127",0.00257250920269858,-0.00358182365241468,"V32",5,210127,116,10615,"29TPG73","29TPG7533",7228,600,"Bragança: Castrelos","PT","ATL_COAST","N_DUNES",80,"N",36,6,"4207c","Galio aparinellae-Anthriscetum caucalidis","Gonçalves Aguiar, C.F.","2000","Flora e vegetação da Serra de Nogueira e do Parque Natural de Montesinho","Universidade Técnica de Lisboa. Inst. Superior de Agronomia. pp."," V32   ","No forest",-6.927495113,41.85609022,"3 - UTM10x10 + Elevation",600,"Mesic ruderals (V39)","Mesic ruderals (V39)"
"Q-P10128",0.00237841324738975,0.00371773905771437,"V32",5,210128,109,10514,"29TPG83","29TPG8535",7229,580,"Bragança: Meixedo","PT","ATL_COAST","N_DUNES",90,"SE",54,6,"4207c","Galio aparinellae-Anthriscetum caucalidis","Gonçalves Aguiar, C.F.","2000","Flora e vegetação da Serra de Nogueira e do Parque Natural de Montesinho","Universidade Técnica de Lisboa. Inst. Superior de Agronomia. pp."," V32   ","No forest",-6.80007697,41.85646934,"4 - UTM10x10 + Centroid",580,"Mesic ruderals (V39)","Mesic ruderals (V39)"
"Q-P10129",0.00246303032506984,-0.0039396520985176,"V32",5,210129,113,9771,"29TPG93","29TPG9732",7230,680,"Bragança: Palácios","PT","ATL_COAST","N_DUNES",100,"NNE",72,2,"4207c","Galio aparinellae-Anthriscetum caucalidis","Gonçalves Aguiar, C.F.","2000","Flora e vegetação da Serra de Nogueira e do Parque Natural de Montesinho","Universidade Técnica de Lisboa. Inst. Superior de Agronomia. pp."," V32   ","No forest",-6.657940453,41.81817926,"3 - UTM10x10 + Elevation",680,"Mesic ruderals (V39)","Mesic ruderals (V39)"
"Q-P10151",-0.0110017133314824,-0.000449364934554271,"V15",4,210151,105,11511,"29TPG84","29TPG8545",7251,1020,"Bragança: Montesinho, imediatamente a Norte da aldeia","PT","ATL_COAST","N_DUNES",60,"",NA,12,"7020","Comunidad de Ornithogalum concinnum y Agrostis truncatula subps. commista","Gonçalves Aguiar, C.F.","2000","Flora e vegetação da Serra de Nogueira e do Parque Natural de Montesinho","Universidade Técnica de Lisboa. Inst. Superior de Agronomia. pp."," V15   ","No forest",-6.746470029,41.93238379,"3 - UTM10x10 + Elevation",1020,"Weeds (V15)","Weeds (V15)"
"Q-P10231",-0.0194731234150492,-0.000554383280218662,"V15",4,210231,109,10514,"29TPG83","29TPG8237",7320,1300,"Bragança: Carragosa, Soutelo, Porto do Sabor","PT","ATL_COAST","N_DUNES",50,"",NA,1,"2123","Agrostio truncatulae-Sedetum lusitanici","Gonçalves Aguiar, C.F.","2000","Flora e vegetação da Serra de Nogueira e do Parque Natural de Montesinho","Universidade Técnica de Lisboa. Inst. Superior de Agronomia. pp."," V15   ","No forest",-6.80007697,41.85646934,"4 - UTM10x10 + Centroid",1300,"Weeds (V15)","Weeds (V15)"
"Q-P10327",-0.00243558547123629,0.000890965020159889,"V15",4,210327,106,12016,"29TPG84","29TPG8741",7405,1040,"Bragança: França, Montesinho, a Norte da aldeia","PT","ATL_COAST","N_DUNES",100,"S",4.5,16,"7025","Comunidad de Agrostis x fouilladei y Arrhenatherum elatius subsp. bulbosus","Gonçalves Aguiar, C.F.","2000","Flora e vegetação da Serra de Nogueira e do Parque Natural de Montesinho","Universidade Técnica de Lisboa. Inst. Superior de Agronomia. pp."," V15   ","No forest",-6.805684907,41.91422527,"3 - UTM10x10 + Elevation",1040,"Weeds (V15)","Weeds (V15)"
"Q-P10329",-0.00340514362152126,0.00134767957872767,"V32",5,210329,101,11655,"29TPG74","29TPG7242",7407,1010,"Vinhais: Mofreita, junto à casa florestal da Mofreita","PT","ATL_COAST","N_DUNES",100,"SW",18,20,"7025","Comunidad de Agrostis x fouilladei y Arrhenatherum elatius subsp. bulbosus","Gonçalves Aguiar, C.F.","2000","Flora e vegetação da Serra de Nogueira e do Parque Natural de Montesinho","Universidade Técnica de Lisboa. Inst. Superior de Agronomia. pp."," V32   ","No forest",-6.880932239,41.92250847,"3 - UTM10x10 + Elevation",1010,"Weeds (V15)","Weeds (V15)"
"Q-P10340",-0.0139338225297256,-1.04725036171029e-05,"V15",4,210340,109,10514,"29TPG83","29TPG8237",7418,1220,"Bragança: Carragosa, Soutelo, planalto antes do Porto do Sabor","PT","ATL_COAST","N_DUNES",100,"",NA,16,"7026","Comunidad de Agrostis x fouilladei y Hypericum linarifolium","Gonçalves Aguiar, C.F.","2000","Flora e vegetação da Serra de Nogueira e do Parque Natural de Montesinho","Universidade Técnica de Lisboa. Inst. Superior de Agronomia. pp."," V15   ","No forest",-6.80007697,41.85646934,"4 - UTM10x10 + Centroid",1220,"Weeds (V15)","Weeds (V15)"
"Q-P10409",0.00305730578209314,0.00426899883361548,"V",7,210409,109,10514,"29TPG83","29TPG8637",7484,600,"Bragança: Rabal, margem do rio Sabor","PT","ATL_COAST","N_DUNES",100,"W",4.5,4,"227","Trifolio fragiferi-Cynodontetum dactyli","Gonçalves Aguiar, C.F.","2000","Flora e vegetação da Serra de Nogueira e do Parque Natural de Montesinho","Universidade Técnica de Lisboa. Inst. Superior de Agronomia. pp."," V     ","No forest",-6.80007697,41.85646934,"4 - UTM10x10 + Centroid",600,"Trampled (V35)","Mesic ruderals (V39)"
"Q-P10411",-0.00389336715878147,-0.00341894731653937,"V",7,210411,116,10615,"29TPG73","29TPG7335",7486,590,"Vinhais: Soeira, Truticultura do Tuela, margem do rio Tuela","PT","ATL_COAST","N_DUNES",80,"",NA,4,"227","Trifolio fragiferi-Cynodontetum dactyli","Gonçalves Aguiar, C.F.","2000","Flora e vegetação da Serra de Nogueira e do Parque Natural de Montesinho","Universidade Técnica de Lisboa. Inst. Superior de Agronomia. pp."," V     ","No forest",-6.927495113,41.85609022,"3 - UTM10x10 + Elevation",590,"Trampled (V35)","Trampled (V35)"
"Q-P10416",-0.00119653915089768,0.00286849715449286,"V35",8,210416,113,10144,"29TPG94","29TPG9745",7490,770,"Bragança: rio de Onor, na aldeia","PT","ATL_COAST","N_DUNES",70,"",NA,4,"3938","Lolio perennis-Plantaginetum maioris","Gonçalves Aguiar, C.F.","2000","Flora e vegetação da Serra de Nogueira e do Parque Natural de Montesinho","Universidade Técnica de Lisboa. Inst. Superior de Agronomia. pp."," V35   ","No forest",-6.616567662,41.93835555,"1 - UTM1x1 + Elevation",770,"Trampled (V35)","Trampled (V35)"
"Q-P11853",-0.00258781970596185,0.00670260025645051,"V34",7,211853,149,12002,"29TNF26","29TNF2364",7975,NA,"Matosinhos, Pampelido, Facho","PT","ATL_COAST","N_DUNES",NA,"",NA,NA,"7611","Comunidade de Plantago coronopus e Catapodium marinum","Honrado, J.; Nepomuceno Alves, H.","2003","Dados sobre vegetação do litoral rochoso do Norte de Portugal Continental (sector Galaico-Português, região Eurossiberiana)","Quercetea 4:"," V34   ","No forest",-8.681068468,41.2388078,"4 - UTM10x10 + Centroid",46,"Trampled (V35)","Trampled (V35)"
"Q-P11857",-0.00363126310871164,0.00583963008916699,"V34",7,211857,150,14547,"29TNG13","29TNG1031",7979,NA,"Caminha, Vila Praia de Ancora, Santo Isidoro","PT","ATL_COAST","N_DUNES",NA,"",NA,NA,"7611","Comunidade de Plantago coronopus e Catapodium marinum","Honrado, J.; Nepomuceno Alves, H.","2003","Dados sobre vegetação do litoral rochoso do Norte de Portugal Continental (sector Galaico-Português, região Eurossiberiana)","Quercetea 4:"," V34   ","No forest",-8.808796947,41.86186237,"4 - UTM10x10 + Centroid",92,"Trampled (V35)","Trampled (V35)"
"Q-P12632",-0.00788643578735877,0.00385532006454166,"V",7,212632,146,11523,"29TNF25","",7811,NA,"Matosinhos, Boa Nova","PT","ATL_COAST","Y_DUNES",70,"",NA,100,"6573","Scrophulario-Vulpietum alopecuroris","Braun-Blanquet, J.; Braun-Blanquet, G.; Rozeira, A.; Pinto da Silva, A.R.","1972","Résultats de trois excursions géobotaniques à travers le Portugal septentrional et moyen. IV. Esquisse sur la végétation dunale.","Agron. Lusit. 33:"," V     ","No forest",-8.660078251,41.16368921,"4 - UTM10x10 + Centroid",38,"Trampled (V35)","Trampled (V35)"
"Q-P13511",-0.00228271076268192,-0.00180030392651003,"V32",5,213511,148,12078,"29TNF36","29TNF3564",8098,100,"DL; Maia: Vilar","PT","ATL_COAST","N_DUNES",NA,"",NA,NA,"8857","Allio triquetri-Urticetum membranaceae","Alves, P.; Honrado, J.; Barreto Caldas, F.","2003","A vegetação escio-nitrófila vivaz (Classe Galio-Urticetea) do noroeste de Portugal continental: Allio triquetri-Urticetum membranaceae ass. nova.","Studia Bot. 22:"," V32   ","No forest",-8.560248488,41.2393617,"3 - UTM10x10 + Elevation",100,"Trampled (V35)","Trampled (V35)"
"Q-P13512",0.00465559561096342,-0.00515966401992349,"V32",5,213512,148,11819,"29TNF36","29TNF3565",8099,100,"DL; Maia: Vilar","PT","ATL_COAST","N_DUNES",NA,"",NA,NA,"8857","Allio triquetri-Urticetum membranaceae","Alves, P.; Honrado, J.; Barreto Caldas, F.","2003","A vegetação escio-nitrófila vivaz (Classe Galio-Urticetea) do noroeste de Portugal continental: Allio triquetri-Urticetum membranaceae ass. nova.","Studia Bot. 22:"," V32   ","No forest",-8.634095047,41.21055453,"3 - UTM10x10 + Elevation",100,"Trampled (V35)","Mesic ruderals (V39)"
"Q-P13513",0.00309822710242515,-0.0041900381464707,"V",5,213513,147,11977,"29TNF36","29TNF3567",8100,120,"DL; Maia: Cavadinha","PT","ATL_COAST","N_DUNES",NA,"",NA,NA,"8857","Allio triquetri-Urticetum membranaceae","Alves, P.; Honrado, J.; Barreto Caldas, F.","2003","A vegetação escio-nitrófila vivaz (Classe Galio-Urticetea) do noroeste de Portugal continental: Allio triquetri-Urticetum membranaceae ass. nova.","Studia Bot. 22:"," V     ","No forest",-8.629594569,41.24138274,"3 - UTM10x10 + Elevation",120,"Trampled (V35)","Mesic ruderals (V39)"
